id,naziv_ustanove,naziv_ustanove_eng,tip_ustanove,maticna_ustanova,ulica_broj,mesto,opstina,okrug,region,poz_broj,tel,mobil_tel,e_mail,website,direktor,kontakt_lice,tip_ustanove_eng,tip_ustanove_rus,ime_ustanova_rus,tip_ustanova_kina,ime_ustanova_kina,delete,latitude,longitude,coordinate,pozivni_broj,geometry
"22025","„Железнице Србије“ а.д, Железнички музеј Београд",The Railway Museum in Belgrade,Музеји и галерије са фондом ,"„Железнице Србије“ а.д, Железнички музеј Београд",Немањина 6,БЕОГРАД - Савски венац,БЕОГРАД - Савски венац,ГРАД БЕОГРАД,Београдски регион,"11",3610 334,064 835 67 40,nenad.vojicic@srbrail.rs,http://www.zeleznicesrbije.com/zeleznicki-muzej/,мр Ненад Војичић,Александар Пфићер,,музеи и галереи с фондом,"„Железные дороги Сербии“ АО, Железнодорожный музей Белград",博物馆与基金展览馆,塞尔维亚铁路公司被恶搞人类的铁路博物馆,,44.80597,20.45824,"44.80597, 20.45824","011",POINT(457157.15353615413 4961539.235222819)
"25253",Mузеј -кућа ''Бора Станковић'',Muzej -kuća ''Bora Stanković'',Музеји и галерије са фондом ,Народни музеј Врање,Баба Златина 9,Врање,Врање,ПЧИЊСКИ ОКРУГ,Регион Јужне и Источне Србије,"17",423 073,062 423 789,muzejvranje@gmail.com,http://muzejvranje.rs/,Саша Стаменковић,Мирјана Јовановић,,музеи и галереи с фондом,,博物馆与基金展览馆,,,42.54929,21.90023,"42.54929, 21.90023","017",POINT(573910.559348906 4711158.85459772)
"22470",Археолошки локалитет Винча,Archaeological Site Vinča,Музеји и галерије са фондом ,Музеј града Београда,Бело Брдо 17,БЕОГРАД - Гроцка,БЕОГРАД - Гроцка,ГРАД БЕОГРАД,Београдски регион,"11",806 6340,,office@mgb.org.rs,http://www.mgb.org.rs/zbirke/arheologija/arheolosko-nalaziste-u-vinci,Татјана Корићанац,Марија Марчета,,музеи и галереи с фондом,Археологический комплекс Винча,博物馆与基金展览馆,文查考古遗址,,44.76188,20.6231,"44.76188, 20.62310","011",POINT(470171.7305195758 4956567.924233857)
"22467",Археолошки музеј Ђердапа у Кладову,Archaeological museum of Djerdap,Музеји и галерије са фондом ,Народни музеј у Београду,Краља Александра 2а,Кладово,Кладово,БОРСКИ ОКРУГ,Регион Јужне и Источне Србије,"19","803 900; 802 334; 802 335","0608075003",opdir@narodnimuzej.rs,http://www.narodnimuzej.rs/posetite-nas/#arheoloski-muzej-djerdapa,Бојана Борић Брешковић,Гордана Грабеж,,музеи и галереи с фондом,Археологический музей Джердапа в Кладово,博物馆与基金展览馆,克拉多沃杰尔达普考古博物馆,,44.61127,22.60936,"44.61127, 22.60936","019",POINT(627697.1806183874 4941028.574233877)
"22024",Војни музеј Београд,Military museum,Музеји и галерије са фондом ,,Калемегдан бб,БЕОГРАД - Стари град,БЕОГРАД - Стари град,ГРАД БЕОГРАД,Београдски регион,"11","3343 441; 3344 408",,vojnimuzej@mod.gov.rs,www.muzej.mod.gov.rs,пп Градимир Матић,пп Драган Нушић,,музеи и галереи с фондом,Военный музей Белград,博物馆与基金展览馆,贝尔格莱德军事博物馆,,44.82184,20.45012,"44.82184, 20.45012","011",POINT(456526.94172335695 4963306.445028645)
"22498",Вуков музеј Тршић,"Cultural Center ""Vuk Karadžic"" Loznica",Музеји и галерије са фондом ,Центар за културу „Вук Караџић” Лозница,село Тршић,Лозница,Лозница,МАЧВАНСКИ ОКРУГ,Регион Шумадије и Западне Србије,"15","868 310; 868 316",,ckvkaradzic@mts.rs,www.ckvkaradzic.org.rs,Снежана Нешковић Симић,Ана Чугуровић,,музеи и галереи с фондом,Музей Вука Тршич,博物馆与基金展览馆,特尔西奇武克博物馆,,44.4961253,19.2679396,"44.4961253, 19.2679396","015",POINT(362295.5735790895 4928437.794354147)
"21929",Галерија „Лазар Возаревић” Сремска Митровица,The Art Gallery Lazar Vozarevic,Музеји и галерије са фондом ,,Градски парк 4,Сремска Митровица,Сремска Митровица,СРЕМСКИ ОКРУГ,Регион Војводине,"22",621 492,,galerijasm@open.telekom.rs,http://lazarvozarevic.com/,Милан Маринковић,Милан Маринковић,,музеи и галереи с фондом,Галерея „Лазарь Возаревич” Сремска-Митровица,博物馆与基金展览馆,斯雷姆斯卡米特洛维察“拉扎尔·沃扎莱维奇”展览馆,,44.96809,19.60737,"44.96809, 19.60737","022",POINT(390178.5174917601 4980348.9280220345)
"21931",Галерија ликовне уметности поклон збирка Рајка Мамузића,The Gallery of Fine Arts - Gift Collection of Rajko Mamuzic,Музеји и галерије са фондом ,,Васе Стајића 1,Нови Сад,Нови Сад,ЈУЖНО-БАЧКИ ОКРУГ,Регион Војводине,"21",520 467,,glurm@mts.rs,www.galerijamamuzic.org.rs,v.d.Mileta Poštić,Љиљана Савић,,музеи и галереи с фондом,Галерея изобразительного искусства подаренная коллекция Райко Мамузича,博物馆与基金展览馆,莱科·玛姆兹奇绘画艺术礼品集展览馆,,45.25213,19.84527,"45.25213, 19.84527","021",POINT(409389.6889144341 5011607.987175816)
"21932",Галерија Матице српске,The Gallery of Matica srpska,Музеји и галерије са фондом ,,Трг галерија 1,Нови Сад,Нови Сад,ЈУЖНО-БАЧКИ ОКРУГ,Регион Војводине,"21",4899 000,069 1103 051,info@galerijamaticesrpske.rs,www.galerijamaticesrpske.rs,Др Тијана Палковљевић Бугарски,Јелена Огњановић,,музеи и галереи с фондом,Галерея Матицы сербской,博物馆与基金展览馆,塞尔维亚中心出版社展览馆,,45.25252,19.84566,"45.25252, 19.84566","021",POINT(409420.9117497133 5011650.875072331)
"21930",Галерија Милан Коњовић,Milan Konjović Gallery,Музеји и галерије са фондом ,,Трг Светог Тројства 2,Сомбор,Сомбор,ЗАПАДНО-БАЧКИ ОКРУГ,Регион Војводине,"25",412 563,069 4111 059,info@konjovic.rs,www.konjovic.rs,Петер Мраковић,Милена Рацков Ковачић,,музеи и галереи с фондом,Галерея Милана Конёвича,博物馆与基金展览馆,米兰·科尼奥维奇展览馆,,45.77208,19.11364,"45.77208, 19.11364","025",POINT(353336.88729934936 5070454.857701398)
"22471","Галерија ММЦ, Културни центар Нови Пазар","MMC Gallery, Cultural Centre Novi Pazar",Музеји и галерије са фондом ,Kulturni centar Novi Pazar,Стевана Немање 2,Нови Пазар,Нови Пазар,РАШКИ ОКРУГ,Регион Шумадије и Западне Србије,"20","335 444; 335 440",064 8186263,domkulture_np@yahoo.com,www.kcnovipazar.com,Хусеин Мемић,Амра Хоџић Јејна,,музеи и галереи с фондом,"Галерея ММЦ, Культурный центр Нови Пазар",博物馆与基金展览馆,新帕扎尔文化中心MMC展览馆,,43.14067,20.51833,"43.14067, 20.51833","020",POINT(460829.5224940588 4776548.739219584)
"22475",Галерија Петра Добровића Београд,Gallery of Petar Dobrović,Музеји и галерије са фондом ,Музеј савремене уметности Београд,Краља Петра 36/IV,БЕОГРАД - Стари град,БЕОГРАД - Стари град,ГРАД БЕОГРАД,Београдски регион,"11",2622 163,,msub@msub.org.rs,www.msub.org.rs,"Слободан Накарада, в.д.",Сенка Ристивојевић,,музеи и галереи с фондом,Галерея Петра Добровича Белград,博物馆与基金展览馆,贝尔格莱德彼得·多布洛维奇展览馆,,44.82018,20.45576,"44.82018, 20.45576","011",POINT(456971.60086040804 4963119.044659429)
"21933",Галерија слика „Сава Шумановић” Шид,Galerija slika „Sava Šumanović” Šid,Музеји и галерије са фондом ,,Светога Саве 7,Шид,Шид,СРЕМСКИ ОКРУГ,Регион Војводине,"22",716 825,,info@savasumanovic.com,www.savasumanovic.com,Весна Буројевић,Весна Буројевић,,музеи и галереи с фондом,Картинная галерея „Сава Шуманович” Шид - Учреждение культуры национального значения,博物馆与基金展览馆,国家重要文化机构“萨瓦·舒玛诺维奇”图片展览馆,,45.12719,19.2282,"45.12719, 19.22820","022",POINT(360664.42329431296 4998606.760250843)
"22477",Галерија слика Миће Поповића и Вере Божичковић Лозница,"Cultural Center ""Vuk Karadžic"" Loznica",Музеји и галерије са фондом ,Центар за културу „Вук Караџић” Лозница,Јована Цвијића 15,Лозница,Лозница,МАЧВАНСКИ ОКРУГ,Регион Шумадије и Западне Србије,"15",881 151,,ckvkaradzic@mts.rs,www.ckvkaradzic.org.rs,Снежана Нешковић Симић,Марина Цветановић,,музеи и галереи с фондом,Картинная галерея Мичи Поповича и Веры Божичкович Лозница,博物馆与基金展览馆,洛兹尼察米恰·波波维奇与维拉·波日池科维奇图片展览馆,,44.53091,19.22176,"44.53091, 19.22176","015",POINT(358708.222762607 4932380.486785933)
"22807","Галерија Српске академије наука и уметности, Београд",Serbian Academy Sciences and Arts,Музеји и галерије са фондом ,Српска академија наука и уметности (галерија),Кнеза Михаила 35,БЕОГРАД - Стари град,БЕОГРАД - Стари град,ГРАД БЕОГРАД,Београдски регион,"11","2027244","0652245324",zaklina.markovic@sanu.ac.rs,sanu.ac.rs,академик Душан Оташевић,Жаклина Марковић,,музеи и галереи с фондом,"Галерея Сербской академии наук и искусств, Белград",博物馆与基金展览馆,贝尔格莱德塞尔维亚科学艺术院展览馆,,44.81775,20.45672,"44.81775, 20.45672","011",POINT(457045.6956833607 4962848.603204634)
"22472",Галерија фресака,Gallery of Frescoes,Музеји и галерије са фондом ,Народни музеј у Београду,Цара Уроша 20,БЕОГРАД - Стари град,БЕОГРАД - Стари град,ГРАД БЕОГРАД,Београдски регион,"11","2621 491; 2910 411; 2910 413; 2910 415; 2910 423; 2910 436",,galerijafresaka@narodnimuzej.rs,www.narodnimuzej.rs,Бојана Борић Брешковић,Бојан Поповић,,музеи и галереи с фондом,Галерея фресок,博物馆与基金展览馆,壁画展览馆,,44.82172,20.45641,"44.82172, 20.45641","011",POINT(457024.1348920694 4963289.769926067)
"22474",Галерија-легат Милице Зорић и Родољуба Чолаковића Београд,The Gallery-Legacy of Milica Zorić and Rodoljub Čo,Музеји и галерије са фондом ,Музеј савремене уметности Београд,Родољуба Чолаковића 2,БЕОГРАД - Савски венац,БЕОГРАД - Савски венац,ГРАД БЕОГРАД,Београдски регион,"11",3676 093,,msub@msub.org.rs,www.msub.org.rs,"Слободан Накарада, в.д.",Сенка Ристивојевић,,музеи и галереи с фондом,Галерея-легат Милицы Зорич и Родолюба Чолаковича Белград,博物馆与基金展览馆,贝尔格莱德米莉察·佐利奇与洛多柳布·朝拉科维奇遗产展览馆,,44.78019,20.45362,"44.78019, 20.45362","011",POINT(456772.55885221966 4958677.951970945)
"22732",Градска кућа,Gradska kuća,Музеји и галерије са фондом ,Народни музеј Лесковац,Учитељ Јосифа 10,Лесковац,Лесковац,ЈАБЛАНИЧКИ ОКРУГ,Регион Јужне и Источне Србије,"16","213063",,nmleskovac@gmail.com,http://muzejleskovac.rs/,Мира Ниношевић,Слађана Рајковић,,музеи и галереи с фондом,,博物馆与基金展览馆,城市之家,,42.99485,21.95031,"42.99485, 21.95031","016",POINT(577464.9252968121 4760681.004397608)
"21937",Градски Mузеј Суботица - Szabadkai Varosi Muzeum,Municipal Museum Subotica,Музеји и галерије са фондом ,,Трг синагоге 3,Суботица,Суботица,СЕВЕРНО-БАЧКИ ОКРУГ,Регион Војводине,"24","555 128; 555 228",,muzejsubotica@mts.rs,www.gradskimuzej.subotica.rs,Иштван Хуло,Kispalkó János,,музеи и галереи с фондом,Городской музей Суботица - Szabadkai Varosi Muzeum,博物馆与基金展览馆,苏博蒂察城市博物馆,,46.10221,19.66141,"46.10221, 19.66141","024",POINT(396541.24374734843 5106274.753687103)
"21936",Градски музеј  Сомбор,City museum of Sombor,Музеји и галерије са фондом ,,Трг Републике 4,Сомбор,Сомбор,ЗАПАДНО-БАЧКИ ОКРУГ,Регион Војводине,"25",412 728,,"gmso@ptt.rs; gmso@sbb.rs",www.gms.rs,Бранимир Машуловић,Живадиновић Кусонић Невена,,музеи и галереи с фондом,Городской музей Сомбор,博物馆与基金展览馆,松博尔城市博物馆,,45.7719,19.11145,"45.77190, 19.11145","025",POINT(353166.1454700087 5070438.880299672)
"25195",Градски музеј Врбас,The City Museum of Vrbas,Музеји и галерије са фондом ,Културни центар Врбас,Маршала Тита 88,Врбас,Врбас,ЈУЖНО-БАЧКИ ОКРУГ,Регион Војводине,"21",707 510,064 8577 054,muzejvrbas@gmail.com,www.kcvrbas.org,Рихард Хенгл,Весна Гргуровић,,музеи и галереи с фондом,Городской музей Врбас,博物馆与基金展览馆,弗尔巴茨城市博物馆,,45.57128,19.64057,"45.57128, 19.64057","021",POINT(393926.36247039493 5047314.275176231)
"21938",Градски музеј Вршац,The City Museum of Vrsac,Музеји и галерије са фондом ,,Жарка Зрењанина 20,Вршац,Вршац,ЈУЖНО-БАНАТСКИ ОКРУГ,Регион Војводине,"13","838 053; 832 902",065 305 3424,muzejvrsac@mts.rs,www.muzejvrsac.org.rs,мр Звонимир Сантрач,Весна Станков,,музеи и галереи с фондом,Городской музей Вршац,博物馆与基金展览馆,弗尔沙茨城市博物馆,,45.11932,21.3018,"45.11932, 21.30180","013",POINT(523737.0347060108 4996249.776718679)
"21942",Музеј „Рас” Нови Пазар,Ras Museum,Музеји и галерије са фондом ,,Стевана Немање 20,Нови Пазар,Нови Пазар,РАШКИ ОКРУГ,Регион Шумадије и Западне Србије,"20","331 681; 331 682; 331 683",,muzejras@gmail.com,https://d.facebook.com/muzejras/?__tn__=%2As-R,Фуад Баћићанин,Семина Ђерлек,,музеи и галереи с фондом,Музей „Рас” Нови Пазар,博物馆与基金展览馆,新帕扎尔“拉斯”博物馆,,43.14157,20.51828,"43.14157, 20.51828","020",POINT(460826.0309901568 4776648.708774162)
"22479",Градски музеј Сента,The City Museum of Senta,Музеји и галерије са фондом ,Културно-образовни центар „Турзо Лајош” Сента,Главни трг 5а,Сента,Сента,СЕВЕРНО-БАНАТСКИ ОКРУГ,Регион Војводине,"33",811 348,063 8555 687,muzeum@tlkk.org,http://tlkk.org/sr/p/3/09_11_2016_Gradski-muzej.html,Рихард Хуђик,Атила Пејин,,музеи и галереи с фондом,Городской музей Сента,博物馆与基金展览馆,森塔城市博物馆,,45.9318,20.08987,"45.93180, 20.08987","033",POINT(429440.0859995982 5086872.730838741)
"21935",Градски музеј Бечеј,The City Museum of Becaj,Музеји и галерије са фондом ,,Главна 25,Бечеј,Бечеј,ЈУЖНО-БАЧКИ ОКРУГ,Регион Војводине,"21",6915 765,,muzej_becej@teamnet.rs,http://www.muzejbecej.rs/,Душан Иветић,Ксенија Милић,,музеи и галереи с фондом,Городской музей в Бечее,博物馆与基金展览馆,贝切伊城市博物馆,,45.61784,20.04467,"45.61784, 20.04467","021",POINT(425519.0442483983 5052032.1180822225)
"21927",Етнографски музеј Београд,Ethnographic Museum in Belgrade,Музеји и галерије са фондом ,,Студентски трг 13,БЕОГРАД - Стари град,БЕОГРАД - Стари град,ГРАД БЕОГРАД,Београдски регион,"11",3281 888,,info@etnografskimuzej.rs,www.etnografskimuzej.rs,"Тијана Чолак-Антић Поповић, в. д. директора",Александра Левнаић,,музеи и галереи с фондом,Этнографический музей в Белграде,博物馆与基金展览馆,贝尔格莱德民族博物馆,,44.81988,20.45643,"44.81988, 20.45643","011",POINT(457024.3491778228 4963085.365041748)
"25233",Завичајна музејска збирка Димитровград,Town museum collection,Музеји и галерије са фондом ,Народна библиотека „Детко Петров” Димитровград,Сутјеска 14,Димитровград,Димитровград,ПИРОТСКИ ОКРУГ,Регион Јужне и Источне Србије,"10","360042","0665360042",nbdetkopetrov@open.telekom.rs,https://www.facebook.com/Zavi%C4%8Dajna-muzejska-zbirka-Dimitrovgrad-367698503415468/,Јасминка Манчев,Весна Николов,,музеи и галереи с фондом,Краеведческая музейная коллекция Димитровград,博物馆与基金展览馆,迪米特洛夫格莱德乡土博物馆集,,43.01828,22.77666,"43.01828, 22.77666","010",POINT(644771.3359660236 4764376.338518146)
"22501",Завичајна музејска збирка Сврљиг,Town museum collection-Svrljig,Музеји и галерије са фондом ,"Центар за туризам, културу и спорт Сврљиг",Боре Прице 2,Сврљиг,Сврљиг,НИШАВСКИ ОКРУГ,Регион Јужне и Источне Србије,"18",821 059,064 8312 500,kcsvrljig@yahoo.com,www.kcsvrljig.rs,Марко Младеновић,Славиша Миливојевић,,музеи и галереи с фондом,Краеведческая музейная коллекция Сврлиг,博物馆与基金展览馆,斯弗尔利格乡土博物馆集,,43.41198,22.12407,"43.41198, 22.12407","018",POINT(591006.9218696279 4807179.680622044)
"22499",Завичајни етнографски музеј Брус,Town Entographic Museum,Музеји и галерије са фондом ,Културни центар Брус,Братиславе Петровић 15,Брус,Брус,РАСИНСКИ ОКРУГ,Регион Шумадије и Западне Србије,"37",825 254,061 6129 175,miramuzej@yahoo.com,,Смиљана Алексић,Мирјана Гашић,,музеи и галереи с фондом,Краеведческий этнографический музей,博物馆与基金展览馆,重要民族博物馆,,43.38317,21.03249,"43.38317, 21.03249","037",POINT(502631.6913016137 4803367.115531161)
"21990",Завичајни музеј Петровац на Млави,"Regional Museum, Petrovac na Mlavi",Музеји и галерије са фондом ,,Српских владара 163,Петровац на Млави,Петровац на Млави,БРАНИЧЕВСКИ ОКРУГ,Регион Јужне и Источне Србије,"12",334 808,063 8325 143,muzejpetrovacnamlavi@gmail.com,www.muzej-petrovacnamlavi.org.rs,Жаклина Перић,Јасмина Живковић,,музеи и галереи с фондом,Краеведческий музей - Петровац на Млаве,博物馆与基金展览馆,姆拉瓦彼得罗瓦茨乡土博物馆,,44.37756,21.41832,"44.37756, 21.41832","012",POINT(533325.0273823637 4913894.073165171)
"22469",Завичајни музеј „Замак културе” Врњачка Бања,Cultural Center Vrnjačka Banja,Музеји и галерије са фондом ,Културни центар Врњачка Бања,7. јули 7,Врњачка Бања,Врњачка Бања,РАШКИ ОКРУГ,Регион Шумадије и Западне Србије,"36",612 144,064 8208 549,zamuzej@ptt.rs,nema,Јелена Боровић Димић,Јелена Боровић Димић,,музеи и галереи с фондом,Краеведческий музей „Замок культуры ” Врнячка-Баня,博物馆与基金展览馆,弗拉涅巴尼亚“扎玛克文化“乡土博物馆,,43.61839,20.89812,"43.61839, 20.89812","036",POINT(491779.6905954589 4829494.7212189045)
"21991",Завичајни музеј Алексинац,Aleksinac Heritage Museum,Музеји и галерије са фондом ,,Момчила Поповића 20,Алексинац,Алексинац,НИШАВСКИ ОКРУГ,Регион Јужне и Источне Србије,"18",800 969,,muzejaleksinac@gmail.com,www.muzejaleksinac.org,Александар Никезић,Александар Никезић,,музеи и галереи с фондом,Краеведческий музей Алексинац,博物馆与基金展览馆,阿莱克西纳茨乡土博物馆,,43.55572,21.69235,"43.55572, 21.69235","018",POINT(555921.1421172793 4822762.383686915)
"22502",Завичајни музеј Бела Паланка,The Homeland Museum of Bela Palanka,Музеји и галерије са фондом ,Народна библиотека „Вук Караџић” Бела Паланка,Крсте Јоцића 4,Бела Паланка,Бела Паланка,ПИРОТСКИ ОКРУГ,Регион Јужне и Источне Србије,"18",855 005,,vukbiblioteka@gmail.com,,Милан Спасић,Милан Спасић,,музеи и галереи с фондом,Краеведческий музей Бела-Паланка,博物馆与基金展览馆,贝拉帕兰卡乡土博物馆,,43.21795,22.31026,"43.21795, 22.31026","018",POINT(606419.4758512957 4785851.55865633)
"21973",Народни музеј Ниш,The National Museum Nis,Музеји и галерије са фондом ,,Генерала Милојка Лешјанина 14,Ниш,Ниш,НИШАВСКИ ОКРУГ,Регион Јужне и Источне Србије,"18","513 430; 248 189","0692408018",muzejnis@mts.rs,http://narodnimuzejnis.rs/,Ненад Спасић,Жељко Анђелковић,,музеи и галереи с фондом,Народный музей Ниш,博物馆与基金展览馆,尼什国家博物馆,,43.31842,21.89331,"43.31842, 21.89331","018",POINT(572435.2849690083 4796563.196970219)
"22503",Завичајни музеј Власотинце,The Homeland Museum of Vlasotince,Музеји и галерије са фондом ,Културни центар Власотинце,Марка Орешковића 1,Власотинце,Власотинце,ЈАБЛАНИЧКИ ОКРУГ,Регион Јужне и Источне Србије,"16","875 314; 877 466",064/8806880,kcentarvl@mts.rs,kcvlasotince,Бобан Димитријевић,Новица Тричковић,,музеи и галереи с фондом,Краеведческий музей Власотинце,博物馆与基金展览馆,弗拉索廷策乡土博物馆,,42.96559,22.12742,"42.96559, 22.12742","016",POINT(591945.840381052 4757610.227619037)
"21997",Завичајни музеј Жупе Александровац,The Homeland Museum of Zupa Aleksandrovac,Музеји и галерије са фондом ,,29. Новембар 95,Александровац,Александровац,РАСИНСКИ ОКРУГ,Регион Шумадије и Западне Србије,"37",3552 326,"0653678811",muzejzupe@gmail.com,www.muzejzupe.org.rs,Иван Брборић,Иван Брборић,,музеи и галереи с фондом,Краеведческий музей Жупы Александровац,博物馆与基金展览馆,阿莱克桑德洛瓦茨乡土博物馆,,43.45902,21.04445,"43.45902, 21.04445","037",POINT(503595.9598928185 4811791.198323212)
"22504",Завичајни музеј Земун,Zemun Museum,Музеји и галерије са фондом ,Музеј града Београда,Главна 9,БЕОГРАД - Земун,БЕОГРАД - Земун,ГРАД БЕОГРАД,Београдски регион,"11",3165 234,,office@mgb.org.rs,www.mgb.org.rs,Татјана Корићанац,Марија Марчета,,музеи и галереи с фондом,Краеведческий музей Земун,博物馆与基金展览馆,泽蒙乡土博物馆,,44.8431,20.41222,"44.84310, 20.41222","011",POINT(453547.6800645251 4965689.062805151)
"21992",Завичајни музеј Јагодина,Regional museum Jagodina,Музеји и галерије са фондом ,,Кнегиње Милице 82,Јагодина,Јагодина,ПОМОРАВСКИ ОКРУГ,Регион Шумадије и Западне Србије,"35","231 328; 232 996; 223 308",064 819 72 83,jagmus@mts.rs,https://sr-rs.facebook.com/zavicajnimuzej.jagodina/,Србољуб Милетић,Србољуб Милетић,,музеи и галереи с фондом,Краеведческий музей Ягодина,博物馆与基金展览馆,雅戈蒂那乡土博物馆,,43.97609,21.26284,"43.97609, 21.26284","035",POINT(521081.42684427736 4869250.790925926)
"21993",Завичајни музеј Књажевац,The Homeland Museum of Knjaževac,Музеји и галерије са фондом ,,Карађорђева 15,Књажевац,Књажевац,ЗАЈЕЧАРСКИ ОКРУГ,Регион Јужне и Источне Србије,"19",731 407,064 8942 601,muzejknjazevac@mts.rs,www.muzejknjazevac.rs,Милена Милошевић Мицић,Милена Милошевић Мицић,,музеи и галереи с фондом,Краеведческий музей Княжевац,博物馆与基金展览馆,克尼亚热瓦茨乡土博物馆,,43.56529,22.25105,"43.56529, 22.25105","019",POINT(601031.662834845 4824352.637984588)
"22468",Завичајни музеј Коцељева,Native nuseum Koceljeva,Музеји и галерије са фондом ,Библиотека „Јанко Веселиновић” Коцељева,Немањина 70,Коцељева,Коцељева,МАЧВАНСКИ ОКРУГ,Регион Шумадије и Западне Србије,"15",558 082,064 8033 178,muzejkoceljeva@gmail.com,https://sr-rs.facebook.com/muzejkoceljeva,Небојша Остојић,"археолог Зоран А. Живановић, виши кустос",,музеи и галереи с фондом,Краеведческий музей Коцелева,博物馆与基金展览馆,科策列瓦乡土博物馆,,44.46654,19.82051,"44.46654, 19.82051","015",POINT(406179.45307656156 4924369.045440923)
"21994",Завичајни музеј Параћин,"Hometown museum ""Paracin""",Музеји и галерије са фондом ,,Томе Живановића 17,Параћин,Параћин,ПОМОРАВСКИ ОКРУГ,Регион Шумадије и Западне Србије,"35",562 035,063/666-763,srndakovicaleksandar@gmail.com,http://www.muzejparacin.rs/,Бранислав Стојановић,Александар Срндаковић,,музеи и галереи с фондом,Краеведческий музей Парачин,博物馆与基金展览馆,帕拉钦乡土博物馆,,43.86418,21.40882,"43.86418, 21.40882","035",POINT(532851.4696374777 4856869.008401327)
"21995",Завичајни музеј Прибој,The Homeland Museum of Priboj,Музеји и галерије са фондом ,,12. јануара 21-25,Прибој,Прибој,ЗЛАТИБОРСКИ ОКРУГ,Регион Шумадије и Западне Србије,"33",2452 453,069 8461 100,muzejpriboj@gmail.com,https://sr-rs.facebook.com/zavicajnimuzej.priboj,Саво Дерикоњић,Саво Дерикоњић,,музеи и галереи с фондом,Краеведческий музей Прибой,博物馆与基金展览馆,普利波伊乡土博物馆,,43.58222,19.52583,"43.58222, 19.52583","033",POINT(380982.88845320005 4826528.293701178)
"21996",Завичајни музеј Рума,Ruma County Museum,Музеји и галерије са фондом ,,Главна 182,Рума,Рума,СРЕМСКИ ОКРУГ,Регион Војводине,"22",474 888,063 8145 556,zavmuzejruma@mts.rs,https://sr-rs.facebook.com/zavicajnimuzejruma/,Снежана Јанковић,Снежана Јанковић,,музеи и галереи с фондом,Краеведческий музей Рума,博物馆与基金展览馆,鲁马乡土博物馆,,45.00771,19.82424,"45.00771, 19.82424","022",POINT(407344.5471743149 4984479.258417142)
"21989",Задужбина краља Петра I Карађорђевића,King's Peter House,Музеји и галерије са фондом ,,Опленац бб,Топола,Топола,ШУМАДИЈСКИ ОКРУГ,Регион Шумадије и Западне Србије,"34","6811 280; 6811 881; 6811-118",063 656 694,zaduzbinat@mts.rs,http://www.oplenac.rs,Драган Рељић,"Саша Маринковић, Марина Маринковић",,музеи и галереи с фондом,Задужбина короля Петра I Караджоржджевича,博物馆与基金展览馆,彼得一世卡拉焦尔杰维奇国王遗赠基金会,,44.2471,20.68277,"44.24710, 20.68277","034",POINT(474672.15714345116 4899367.2136370735)
"22735",Збирка икона Секулић,Collection of Icons Sekulić,Музеји и галерије са фондом ,Музеј града Београда,Узун Миркова 5,БЕОГРАД - Стари град,БЕОГРАД - Стари град,ГРАД БЕОГРАД,Београдски регион,"11",2182 961,,office@mgb.org.rs,www.mgb.org.rs,Татјана Корићанац,Марија Марчета,,музеи и галереи с фондом,Коллекция икон Секулич,博物馆与基金展览馆,塞库利奇圣象画集,,44.81997,20.45556,"44.81997, 20.45556","011",POINT(456955.63231549837 4963095.822945392)
"21939",Историјски музеј Србије,Historical Мuseum of Serbia,Музеји и галерије са фондом ,,Трг Николе Пашића 11,БЕОГРАД - Стари град,БЕОГРАД - Стари град,ГРАД БЕОГРАД,Београдски регион,"11","3287 242; 2187 360; 2637 753",,istorijskimuzej@imus.org.rs,www.imus.org.rs,др Душица Бојић,Слађана Бојковић,,музеи и галереи с фондом,Исторический музей Сербии,博物馆与基金展览馆,塞尔维亚历史博物馆,,44.81247,20.4637,"44.81247, 20.46370","011",POINT(457593.69829951506 4962258.41616915)
"22021","Јавно предузеће „Пошта Србије”, ПТТ музеј",PTT museum,Музеји и галерије са фондом ,Јавно предузеће „Пошта Србије” (музеј),Мајке Јевросиме 13,БЕОГРАД - Стари град,БЕОГРАД - Стари град,ГРАД БЕОГРАД,Београдски регион,"11","3064 108; 3063 278",064 6980378,pttmuzej@ptt.rs,http://www.pttmuzej.rs/,Гордана Симоновић Живковић,Татјана Секулић,,музеи и галереи с фондом,"Госпредприятие „Почта Србије”, Музей ПТТ (Почта-Телефон-Телеграф)",博物馆与基金展览馆,塞尔维亚邮政国有公司邮政博物馆,,44.81257,20.46809,"44.81257, 20.46809","011",POINT(457940.8970482959 4962267.243867673)
"22002",Јеврејски историјски музеј,Jewish Historical Museum,Музеји и галерије са фондом ,Савез јеврејских општина Србије (музеј),Краља Петра 71а,БЕОГРАД - Стари град,БЕОГРАД - Стари град,ГРАД БЕОГРАД,Београдски регион,"11",2622 634,,jevrejskimuzej@savezjos.org,www.jimbeograd.org,Војислава Радовановић,Војислава Радовановић,,музеи и галереи с фондом,Еврейский исторический музей,博物馆与基金展览馆,犹太历史博物馆,,44.82144,20.45697,"44.82144, 20.45697","011",POINT(457068.20032842964 4963258.370496395)
"22481",Конак кнегиње Љубице Београд,Residence of Princess Ljubica,Музеји и галерије са фондом ,Музеј града Београда,Кнеза Симе Марковића 8,БЕОГРАД - Стари град,БЕОГРАД - Стари град,ГРАД БЕОГРАД,Београдски регион,"11",2638 264,,office@mgb.org.rs,www.mgb.org.rs,Татјана Корићанац,Марија Марчета,,музеи и галереи с фондом,Усадьбы княгини Любицы Белград,博物馆与基金展览馆,贝尔格莱德柳比查大公庄园,,44.81711,20.45216,"44.81711, 20.45216","011",POINT(456684.68112678325 4962779.929376944)
"23664",Кућа легата,The Heritage House Belgrade,Музеји и галерије са фондом ,,Кнеза Михаила 46,БЕОГРАД - Стари град,БЕОГРАД - Стари град,ГРАД БЕОГРАД,Београдски регион,"11",2660 403,,kucalegata@kucalegata.org,www.kucalegata.org,Филип Брусић-Renaud,Нада Симулов Тимофејев,,музеи и галереи с фондом,Дом легата,博物馆与基金展览馆,遗产之家,,44.81885,20.45548,"44.81885, 20.45548","011",POINT(456948.4739150749 4962971.4514164375)
"22507",Легат Гашпаревић,Legacy of Robert Cikler Gašparović,Музеји и галерије са фондом ,Музеј града Београда,Персиде Миленковић 12,БЕОГРАД - Савски венац,БЕОГРАД - Савски венац,ГРАД БЕОГРАД,Београдски регион,"11","2650570",,office@mgb.org.rs,www.mgb.org.rs,Татјана Корићанац,Марија Марчета,,музеи и галереи с фондом,Легат Гашпаревич,博物馆与基金展览馆,加尔帕莱维奇遗产,,44.79171,20.43863,"44.79171, 20.43863","011",POINT(455595.44132353493 4959965.706075127)
"25202",Манакова кућа,Manak's House,Музеји и галерије са фондом ,Етнографски музеј у Београду,Гаврила Принципа 5,БЕОГРАД - Стари град,БЕОГРАД - Стари град,ГРАД БЕОГРАД,Београдски регион,"11",3036 114,,manakovakuca@etnografskimuzej.rs,etnografskimuzej.rs/rs/manakova-kuca/,"Тијана Чолак-Антић Поповић, в. д. директора",Јелена Туцаковић,,музеи и галереи с фондом,Манаков дом,博物馆与基金展览馆,马纳克之家,,44.81371,20.45436,"44.81371, 20.45436","011",POINT(456856.0903990525 4962401.074618958)
"25240",Медијана,Medijana,Музеји и галерије са фондом ,Народни музеј Ниш,Булевар Цара Константина бб,Ниш,Ниш,НИШАВСКИ ОКРУГ,Регион Јужне и Источне Србије,"18",550 433,,muzejnis@mts.rs,www.narodnimuzejnis.rs,Ненад Спасић,Весна Црноглавац,,музеи и галереи с фондом,,博物馆与基金展览馆,,,43.31046,21.94921,"43.31046, 21.94921","018",POINT(576978.0861166338 4795729.201753429)
"22482",Меморијални музеј Јована Цвијића Београд,Museum of Jovan Cvijić,Музеји и галерије са фондом ,Музеј града Београда,Јелене Ћетковић 5,БЕОГРАД - Стари град,БЕОГРАД - Стари град,ГРАД БЕОГРАД,Београдски регион,"11",3223 126,,office@mgb.org.rs,www.mgb.org.rs,Татјана Корићанац,Марија Марчета,,музеи и галереи с фондом,Мемориальный музей Йована Цвийича Белград,博物馆与基金展览馆,贝尔格莱德约万茨维伊奇纪念博物馆,,44.81571,20.46865,"44.81571, 20.46865","011",POINT(457987.45722388703 4962615.75720965)
"21940",Модерна галерија Ваљево,The Modern Gallery Valjevo,Музеји и галерије са фондом ,,Вука Караџића 11,Ваљево,Ваљево,КОЛУБАРСКИ ОКРУГ,Регион Шумадије и Западне Србије,"14",220 878,"0648559941",modernagaleriva@ptt.rs,http://www.mgva.rs/,Војислав Јовановић,Љиљана Беха,,музеи и галереи с фондом,Современная галерея Валево,博物馆与基金展览馆,瓦列沃现代展览馆,,44.27073,19.88611,"44.27073, 19.88611","014",POINT(411101.79307202145 4902546.190115089)
"21941",Музеј „Horreum Margi - Равно” Ћуприја,"Museum ""Horreum Margi-Ravno""",Музеји и галерије са фондом ,,Карађорђева 27,Ћуприја,Ћуприја,ПОМОРАВСКИ ОКРУГ,Регион Шумадије и Западне Србије,"35",8871 270,063 7331249,horeumargi@mts.rs,https://sr-rs.facebook.com/horeumargi/,Новак Новаковић,Новак Новаковић,,музеи и галереи с фондом,Музей „Horreum Margi - Равно” Чуприя,博物馆与基金展览馆,丘普里亚“霍雷姆·玛尔基-拉夫诺”博物馆,,43.93494,21.37086,"43.93494, 21.37086","035",POINT(529765.8503061649 4864713.651550053)
"21943",Музеј „Стара ливница”,Museum Stara livnica,Музеји и галерије са фондом ,Застава оружје АД (музеј),Kosovska 4,Крагујевац,Крагујевац,ШУМАДИЈСКИ ОКРУГ,Регион Шумадије и Западне Србије,"34",337 786,,protokol@zastava-arms.rs,www.muzej-topolivnica.rs,Милојко Брзаковић,Марија Милошевић,,музеи и галереи с фондом,Музей „Старая литейная мастерская”,博物馆与基金展览馆,“老锻造厂”博物馆,,44.0068684,20.9106302,"44.0068684, 20.9106302","034",POINT(492835.6822907829 4872639.581131818)
"22004",Музеј аутомобила - збирка Братислава Петковића,"The Automobile Museum, Bratislav Petkovic Collection",Музеји и галерије са фондом ,,Мајке Јевросиме 30,БЕОГРАД - Стари град,БЕОГРАД - Стари град,ГРАД БЕОГРАД,Београдски регион,"11",3034 625,063 389 602,bpetkovic@emoteproductions.com,http://www.automuseumbgd.com/,Богдан Петковић,Богдан Петковић,,музеи и галереи с фондом,Музей автомобилей - коллекция Братислава Петковича,博物馆与基金展览馆,布拉迪斯拉夫·佩特科维奇汽车收藏博物馆,,44.81382,20.46605,"44.81382, 20.46605","011",POINT(457780.50249753735 4962407.155991138)
"22003",Музеј афричке уметности Београд: збирка Веде и др Здравка Печара,The Museum of African Art: the Veda and dr Zdravko,Музеји и галерије са фондом ,,Андре Николића 14,БЕОГРАД - Савски венац,БЕОГРАД - Савски венац,ГРАД БЕОГРАД,Београдски регион,"11","2651 654; 2651 269","000",africanmuseum@gmail.com,www.museumofafricanart.org,в.д. Нарциса Кнежевић Шијан,Емилиа Епштајн,,музеи и галереи с фондом,Музей африканского искусства Белград: коллекция Веде и д-р Здравко Печара,博物馆与基金展览馆,贝尔格莱德非洲艺术博物馆：韦德与兹德拉科·佩查尔收藏集,,44.78914,20.43503,"44.78914, 20.43503","011",POINT(455308.69670772366 4959682.194071418)
"22483",Музеј бањичког логора Београд,Museum of Banjica concentration camp,Музеји и галерије са фондом ,Музеј града Београда,Павла Јуришића Штурма 33,БЕОГРАД - Савски венац,БЕОГРАД - Савски венац,ГРАД БЕОГРАД,Београдски регион,"11",3674 877,,office@mgb.org.rs,www.mgb.org.rs,Татјана Корићанац,Марија Марчета,,музеи и галереи с фондом,Музей баницкого лагеря Белград,博物馆与基金展览馆,贝尔格莱德温泉营博物馆,,44.77119,20.46759,"44.77119, 20.46759","011",POINT(457871.2673114597 4957670.875629977)
"25238",Музеј Батинске битке,Muzej Batinske bitke,Музеји и галерије са фондом ,Градски музеј  Сомбор,Бездан  (Царинска колонија) бб,Сомбор,Сомбор,ЗАПАДНО-БАЧКИ ОКРУГ,Регион Војводине,"25",025 468 330,069 1557077 /  064 9689107,milkaljuboja@gmail.com,,Бранимир Mашуловић,Милка Љубоја и Мартина Чувардић,,музеи и галереи с фондом,,博物馆与基金展览馆,,,45.85056,18.861093,"45.85056, 18.861093","025",POINT(333935.2691349982 5079668.5118130185)
"21961",Музеј ваздухопловства Београд,Aeronautical museum-Belgrade,Музеји и галерије са фондом ,,"Аеродром ""Никола Тесла"", п.ф. 35 ББ",БЕОГРАД - Сурчин,БЕОГРАД - Сурчин,ГРАД БЕОГРАД,Београдски регион,"11",2670 992,064 846 9990,kontakt@muzejvazduhoplovstva.org.rs,www.muzejvazduhoplovstva.org.rs,Чедо Миливојевић,Игор Марјановић,,музеи и галереи с фондом,Музей авиации-Белград,博物馆与基金展览馆,贝尔格莱德航空博物馆,,44.81909,20.28554,"44.81909, 20.28554","011",POINT(443512.6930260009 4963102.166346299)
"22033",Музеј ФК Партизан,FC Partizan Museum,Музеји и галерије са фондом ,,Хумска 1,БЕОГРАД - Савски венац,БЕОГРАД - Савски венац,ГРАД БЕОГРАД,Београдски регион,"11",2648 222,,jsd@partizan.rs,www.partizan.rs,,еКултура,,музеи и галереи с фондом,Музей Футбольного клуба Партизан,博物馆与基金展览馆,游击队足球俱乐部博物馆,,44.78906,20.45977,"44.78906, 20.45977","011",POINT(457265.66751173773 4959660.009603627)
"21962",Музеј винарства и виноградарства Александровац,Museum of Winemaking and Viticulture,Музеји и галерије са фондом ,,Др Милана Мирковића 7,Александровац,Александровац,РАСИНСКИ ОКРУГ,Регион Шумадије и Западне Србије,"37",3554 596,065 9898 809,muzejvv@mts.rs,https://sr-rs.facebook.com/Muzej-vinarstva-i-vinogradarstva-152690611419513/,Драган Илић,Зоран Станић,,музеи и галереи с фондом,Музей виноделия и виноградства Александровац,博物馆与基金展览馆,阿莱克桑德洛瓦茨葡萄酒种植与酒庄博物馆,,43.45618,21.05411,"43.45618, 21.05411","037",POINT(504377.6489788835 4811476.258152284)
"21963",Музеј Војводине Нови Сад,The museum of Vojvodina,Музеји и галерије са фондом ,,Дунавска 35-37,Нови Сад,Нови Сад,ЈУЖНО-БАЧКИ ОКРУГ,Регион Војводине,"21","420 566; 520 135",063 457 995,direktor@muzejvojvodine.org.rs,www.muzejvojvodine.org.rs,директор др Драго Његован,Миленко Ушћебрка,,музеи и галереи с фондом,Музей Воеводины Нови-Сад,博物馆与基金展览馆,诺维萨德伏伊伏丁那博物馆,,45.25645,19.85166,"45.25645, 19.85166","021",POINT(409897.93670650374 5012080.747058172)
"22018",Музеј војвођанских Словака,The Museum of Slovaks in Vojvodina,Музеји и галерије са фондом ,,Маршала Тита 23,Бачки Петровац,Бачки Петровац,ЈУЖНО-БАЧКИ ОКРУГ,Регион Војводине,"21",781 377,,muzejvs@stcable.net,www.muzeumslovakov.rs,Анка Сеч-Пинћир,Зденко Лончар,,музеи и галереи с фондом,Музей воеводинских словаков,博物馆与基金展览馆,伏伊伏丁那斯洛伐克博物馆,,45.36121,19.59033,"45.36121, 19.59033","021",POINT(389596.86067112454 5024044.013642241)
"21974",Народни музеј Панчево,National Museum of Pancevo,Музеји и галерије са фондом ,,Трг Краља Петра I 7,Панчево,Панчево,ЈУЖНО-БАНАТСКИ ОКРУГ,Регион Војводине,"13","342 666; 346 471",064 866 2481,info@muzejpancevo.rs,http://www.muzejpancevo.rs/,Мирослав Бирцлин,Дамир Прашникар,,музеи и галереи с фондом,Народный музей Панчево,博物馆与基金展览馆,潘切沃国家博物馆,,44.87146,20.64027,"44.87146, 20.64027","013",POINT(471584.4510877336 4968734.331772042)
"22492",Музеј Вука и Доситеја,Museum of Vuk and Dositej,Музеји и галерије са фондом ,Народни музеј у Београду,Господар Јевремова 21,БЕОГРАД - Стари град,БЕОГРАД - Стари град,ГРАД БЕОГРАД,Београдски регион,"11",2625 161,,vukidositej@narodnimuzej.rs,www.narodnimuzej.rs,Бојана Борић Брешковић,Елиана Гавриловић,,музеи и галереи с фондом,Музей Вука и Досифея,博物馆与基金展览馆,武克与多西泰伊博物馆,,44.82104,20.45885,"44.82104, 20.45885","011",POINT(457216.53680501797 4963212.945653898)
"21944",Музеј града Београда,The Belgrade City Museum,Музеји и галерије са фондом ,,Змај Јовина 1,БЕОГРАД - Стари град,БЕОГРАД - Стари град,ГРАД БЕОГРАД,Београдски регион,"11","2638 744; 2630 825","0605005137",office@mgb.org.rs,www.mgb.org.rs,Татјана Корићанац,Марија Марчета,,музеи и галереи с фондом,Музей города Белграда,博物馆与基金展览馆,贝尔格莱德城市博物馆,,44.81664,20.45671,"44.81664, 20.45671","011",POINT(457044.08091492445 4962725.305477625)
"22006","Музеј града Новог Сада, Петроварадин",City Museum of Novi Sad,Музеји и галерије са фондом ,,Тврђава 4,Нови Сад,Нови Сад,ЈУЖНО-БАЧКИ ОКРУГ,Регион Војводине,"21","6432 055; 6433 613; 6433 145",062/ 807 19 47,muzejgrada.ns@gmail.com,www.museumns.rs,MSc Весна Јовичић,Александра Вуковић,,музеи и галереи с фондом,"Музей города Нови-Сада, Петроварадин",博物馆与基金展览馆,彼得罗瓦拉丁诺维萨德城市博物馆,,45.25234,19.862,"45.25234, 19.86200","021",POINT(410702.8002926731 5011612.659637959)
"21964",Музеј жртава геноцида Београд,Museum of genocide victims,Музеји и галерије са фондом ,,Трг Николе Пашића 11/III,БЕОГРАД - Стари град,БЕОГРАД - Стари град,ГРАД БЕОГРАД,Београдски регион,"11","3398 782; 3398 883",069 2556 501,office@muzejgenocida.rs,www.muzejgenocida.rs,Др Вељко Ђурић,"Јасмина Тутуновић Трифунов, Јасмина Димитријевић",,музеи и галереи с фондом,Музей жертв геноцида Белград,博物馆与基金展览馆,贝尔格莱德种族灭绝受害者博物馆,,44.8125,20.46376,"44.81250, 20.46376","011",POINT(457598.46460196725 4962261.717382937)
"22019",Музеј за историју фармације Фармацеутског факултета Универзитета у Београду,The History of Pharmacy Museum at The Faculty of P,Музеји и галерије са фондом ,,Војводе Степе 450,БЕОГРАД - Вождовац,БЕОГРАД - Вождовац,ГРАД БЕОГРАД,Београдски регион,"11","3951 383; 3951 200",063 1150 629,info@pharmacy.bg.ac.rs,https://www.facebook.com/pharmantiques/,Зорица Вујић,Душанка Крајновић,,музеи и галереи с фондом,Музей истории фармацевтики Фармацевтический факультет Белградского университета,博物馆与基金展览馆,贝尔格莱德大学药学院医药历史博物馆,,44.74716,20.49534,"44.74716, 20.49534","011",POINT(460050.5246058696 4954987.563133724)
"22007",Музеј индустрије „Гоша” хК а.д. Смедеревска Паланка,"Industrial Museum ""Gosa"" ",Музеји и галерије са фондом ,,Индустријска 70,Смедеревска Паланка,Смедеревска Паланка,ПОДУНАВСКИ ОКРУГ,Регион Јужне и Источне Србије,"26",314 447,,sindikat.gosa@gmail.com,sindikat.gosa@gmail.com,,Божидар Тодоровић,,музеи и галереи с фондом,Музей индустрии „Гоша” Холдинг корпорация АО Смедеревска-Паланка,博物馆与基金展览馆,"斯梅代雷沃帕兰卡“果沙""公司工业博物馆",,44.35925,20.96301,"44.35925, 20.96301","026",POINT(497052.3126176383 4911775.871780233)
"21945",Музеј историје Југославије,Museum of Yugoslav History,Музеји и галерије са фондом ,,Ботићева 6,БЕОГРАД - Савски венац,БЕОГРАД - Савски венац,ГРАД БЕОГРАД,Београдски регион,"11",3671 485,,info@mij.rs,www.mij.rs,мр Неда Кнежевић,Катарина Живановић,,музеи и галереи с фондом,Музей истории Югославии - Учреждение культуры национального значения,博物馆与基金展览馆,国家重要文化机构南斯拉夫历史博物馆,,44.78807,20.45203,"44.78807, 20.45203","011",POINT(456652.6617091943 4959554.133466785)
"22487",Музеј Јадра Лозница,"Cultural Center ""Vuk Karadžic"" Loznica",Музеји и галерије са фондом ,Центар за културу „Вук Караџић” Лозница,Пашићева 25,Лозница,Лозница,МАЧВАНСКИ ОКРУГ,Регион Шумадије и Западне Србије,"15",875 422,,muzejjadra@gmail.com,www.ckvkaradzic.org.rs,Снежана Нешковић Симић,Горан Вилић,,музеи и галереи с фондом,Музей Ядра Лозница,博物馆与基金展览馆,洛兹尼察雅德拉博物馆,,44.53159,19.22458,"44.53159, 19.22458","015",POINT(358933.9318254348 4932451.145961238)
"22009",Музеј катедре за анатомију факултета ветеринарске медицине,Faculty of veterinary medicine,Музеји и галерије са фондом ,,Бул.ослобођења 18,БЕОГРАД - Савски венац,БЕОГРАД - Савски венац,ГРАД БЕОГРАД,Београдски регион,"11",3615 437,062 8039 703,dekanat@vet.bg.ac.rs,http://katedre.vet.bg.ac.rs/~anatomija/muzej/omuzeju.html,Владо Теодоровић,Зоран Зорић,,музеи и галереи с фондом,Музей кафедры анатомии факультета ветеринарной медицины,博物馆与基金展览馆,兽医学院解剖学教研室博物馆,,44.79432,20.46534,"44.79432, 20.46534","011",POINT(457710.1182020427 4960241.395980452)
"21946",Музеј Крајине Неготин,The Krajina Museum,Музеји и галерије са фондом ,,Вере Радосављевић 1,Неготин,Неготин,БОРСКИ ОКРУГ,Регион Јужне и Источне Србије,"19","543 341, 545 072",065 5681688,muzejnegotin@gmail.com,www.muzejkrajine.org.rs,Ивица Трајковић,Ивица Трајковић,,музеи и галереи с фондом,Музей Края Неготин,博物馆与基金展览馆,内戈廷克拉依那博物馆,,44.22477,22.53145,"44.22477, 22.53145","019",POINT(622318.5805029719 4897978.355374418)
"22488",Музеј Лепенског вира,Lepenski vir Museum,Музеји и галерије са фондом ,Народни музеј у Београду,ББ,Мајданпек,Мајданпек,БОРСКИ ОКРУГ,Регион Јужне и Источне Србије,"30","590 210; 590 184",,office@lepenski-vir.org,http://www.narodnimuzej.rs/o-muzeju/prostori-narodnog-muzeja/muzej-lepenski-vir/,,Гордана Грабеж,,музеи и галереи с фондом,Музей Лепенского вира,博物馆与基金展览馆,莱盆斯基维尔博物馆,,44.55695,22.02627,"44.55695, 22.02627","030",POINT(581506.7717988278 4934247.263159191)
"21947",Музеј Мацура Нови Бановци,Museum Macura,Музеји и галерије са фондом ,,Зенит 1,Стара Пазова,Стара Пазова,СРЕМСКИ ОКРУГ,Регион Војводине,"22",064 4729 620,064 4729 620,"muzejmacura@yahoo.de; fotonst@gmail.com",https://www.facebook.com/pages/Muzej-Macura/1437242736571598,Владимир Мацура,Владимир Мацура,,музеи и галереи с фондом,Музей Мацура Нови-Бановци,博物馆与基金展览馆,新班诺夫奇玛促拉博物馆,,44.93861,20.29683,"44.93861, 20.29683","022",POINT(444520.293438171 4976371.262325159)
"22010",Музеј Михајла Пупина - Идвор,Museum complex Mihajlo Pupin Idvor,Музеји и галерије са фондом ,Дом културе „Михајло Пупин”,Иве Лоле Рибара 47,Ковачица,Ковачица,ЈУЖНО-БАНАТСКИ ОКРУГ,Регион Војводине,"13",676 240,062 256 341,domkultureidvor@gmail.com,www.muzejpupina.rs,Светислав Закић,Мирјана Грујић,,музеи и галереи с фондом,Музей Михайло Пупина - Идвор,博物馆与基金展览馆,伊德沃尔米哈伊尔·普平博物馆,,45.18999,20.51382,"45.18999, 20.51382","013",POINT(461808.4286227209 5004171.191174054)
"22480",Музеј Младеновца,Мuseum of Mladenovac,Музеји и галерије са фондом ,Музеј града Београда,Александрова 69,БЕОГРАД - Младеновац,БЕОГРАД - Младеновац,ГРАД БЕОГРАД,Београдски регион,"11",8232 969,,office@mgb.org.rs,www.mgb.org.rs,Татјана Корићанац,Марија Марчета,,музеи и галереи с фондом,Музей Младеноваца,博物馆与基金展览馆,姆拉德诺瓦茨博物馆,,44.43958,20.6954,"44.43958, 20.69540","011",POINT(475759.98862354935 4920743.022632514)
"21948",Музеј на отвореном „Старо село” Сирогојно,Open air museum „Old village”,Музеји и галерије са фондом ,,село Сирогојно бб,Чајетина,Чајетина,ЗЛАТИБОРСКИ ОКРУГ,Регион Шумадије и Западне Србије,"31","3802 063; 3802 291; 3802 583; 3802 586",,staroselo@ptt.rs,www.sirogojno.org.rs,Светлана Ћалдовић Шијаковић,Јелена Тоскић,,музеи и галереи с фондом,Музей на открытом воздухе „Старая деревня” Сирогойно,博物馆与基金展览馆,西罗格伊诺“老村”公开博物馆,,43.6885863,19.8779627,"43.6885863, 19.8779627","031",POINT(409572.19779949624 4837897.397416636)
"21949",Музеј наивне и маргиналне уметности Јагодина,Museum of naive and magrinal art Jagodina,Музеји и галерије са фондом ,,Бошка Ђуричића 10,Јагодина,Јагодина,ПОМОРАВСКИ ОКРУГ,Регион Шумадије и Западне Србије,"35","8223 419; 244 317",,info@naiveart.rs,www.naiveart.rs,Нина Крстић,Славица Милосављевић,,музеи и галереи с фондом,Музей наивного и маргинального искусства Ягодина,博物馆与基金展览馆,雅戈蒂那朴素与非主流艺术博物馆,,43.98168,21.26269,"43.98168, 21.26269","035",POINT(521067.419252651 4869871.6195410285)
"21950",Музеј наивне уметности „Илијанум” Шид,"Museum of Naïve Art ""Ilijanum""",Музеји и галерије са фондом ,,Светог Саве 5,Шид,Шид,СРЕМСКИ ОКРУГ,Регион Војводине,"22",715 418,062 755 852,ilijabosilj@mts.rs,www.mnuilijanum.rs,Љубинка Пантић,Љубинка Пантић,,музеи и галереи с фондом,Музей наивного искусства „Илиянум” Шид,博物馆与基金展览馆,西得“伊利亚努姆”朴素艺术博物馆,,45.12738,19.22799,"45.12738, 19.22799","022",POINT(360648.37152717775 4998628.22933583)
"22030",Музеј Народног позоришта,Museum of The National Theatre in Belgrade,Музеји и галерије са фондом ,Народно позориште у Београду,Доситејева 2,БЕОГРАД - Стари град,БЕОГРАД - Стари град,ГРАД БЕОГРАД,Београдски регион,"11","3284 473; 3281 333",060 2240 025,muzej@narodnopozoriste.rs,www.narodnopozoriste.rs,Драган Стевовић,Драган Стевовић,,музеи и галереи с фондом,Музей Народного театра,博物馆与基金展览馆,国家大剧院博物馆,,44.81677,20.46053,"44.81677, 20.46053","011",POINT(457346.2100147687 4962737.734786175)
"21951",Музеј науке и технике Београд,Museum of Science and Technology Belgrade,Музеји и галерије са фондом ,,Скендер бегова 51,БЕОГРАД - Стари град,БЕОГРАД - Стари град,ГРАД БЕОГРАД,Београдски регион,"11",3037 850,,mnt@muzejnt.rs,www.muzejnt.rs,Рифат Куленовић,Татијана Радаковић,,музеи и галереи с фондом,Музей науки и техники Белград,博物馆与基金展览馆,贝尔格莱德科技博物馆,,44.82174,20.46519,"44.82174, 20.46519","011",POINT(457718.29065169767 4963287.386733682)
"22011",Музеј Николе Тесле,Nikola Tesla Museum,Музеји и галерије са фондом ,,Крунска 51,БЕОГРАД - Врачар,БЕОГРАД - Врачар,ГРАД БЕОГРАД,Београдски регион,"11",2433 886,,info@tesla-museum.org,www.nikolateslamuseum.org,др Бранимир Јовановић,Радмила Аџић,,музеи и галереи с фондом,Музей Николы Тесла,博物馆与基金展览馆,尼古拉·特斯拉博物馆,,44.80487,20.47103,"44.80487, 20.47103","011",POINT(458167.80297322664 4961410.3830396)
"22001",Музеј општине Бачка Топола - Topolya Község Múzeuma,Municipal Museum of Bačka Topola,Музеји и галерије са фондом ,,Маршала Тита 60,Бачка Топола,Бачка Топола,СЕВЕРНО-БАЧКИ ОКРУГ,Регион Војводине,"24",716 093,065 5551 285,topmuz@gmail.com,https://www.facebook.com/muzejbacketopole?ref=hl,Одговорно лице: Харгита Гажо,Харгита Гажо,,музеи и галереи с фондом,Музей муниципалитета Бачка-Топола - Topolya Község Múzeuma,博物馆与基金展览馆,巴池托珀拉城区博物馆,,45.81513,19.6298,"45.81513, 19.62980","024",POINT(393549.72584370704 5074420.343070442)
"22489",Музеј Паје Јовановића Београд,Museum of Paja Jovanović,Музеји и галерије са фондом ,Музеј града Београда,Краља Милана 21,БЕОГРАД - Стари град,БЕОГРАД - Стари град,ГРАД БЕОГРАД,Београдски регион,"11",3340 176,,office@mgb.org.rs,www.mgb.org.rs,Татјана Корићанац,Марија Марчета,,музеи и галереи с фондом,Музей Пайи Йовановича Белград,博物馆与基金展览馆,贝尔格莱德“帕亚·约万诺维奇”博物馆,,44.8074,20.46424,"44.80740, 20.46424","011",POINT(457632.68560456554 4961694.940501934)
"21953",Музеј позоришне уметности Србије,Muzej pozorišne umetnosti Srbije,Музеји и галерије са фондом ,,Господар Јевремова 19,БЕОГРАД - Стари град,БЕОГРАД - Стари град,ГРАД БЕОГРАД,Београдски регион,"11","2626 630; 2628 920",,office@mpus.org.rs,www.mpus.org.rs,Момчило Ковачевић,Јована Вуковић,,музеи и галереи с фондом,Музей театрального искусства Сербии,博物馆与基金展览馆,国家重要文化机构塞尔维亚艺术剧院博物馆,,44.8213,20.45859,"44.82130, 20.45859","011",POINT(457196.17351369 4963241.964349231)
"21952",Музеј Понишавља Пирот,Ponisavlje Museum Pirot,Музеји и галерије са фондом ,,Николе Пашића 49,Пирот,Пирот,ПИРОТСКИ ОКРУГ,Регион Јужне и Источне Србије,"10",313 850,,muzejpirot@gmail.com,www.muzejpirot.com,Саша Јовановић,Татијана Карановић,,музеи и галереи с фондом,Музей Понишавля Пирот,博物馆与基金展览馆,皮洛特珀尼沙弗利亚博物馆,,43.16174,22.58881,"43.16174, 22.58881","010",POINT(629162.1826500655 4780001.202335446)
"21954",Музеј примењене уметности Београд,Museum of Applied Art Belgrade,Музеји и галерије са фондом ,,Вука Караџића 18,БЕОГРАД - Стари град,БЕОГРАД - Стари град,ГРАД БЕОГРАД,Београдски регион,"11","2626 841; 2626 494",,info@mpu.rs,www.mpu.rs,Љиљана Милетић Абрамовић,Милица Цукић,,музеи и галереи с фондом,Музей прикладного искусства Белград,博物馆与基金展览馆,贝尔格莱德应用艺术博物馆,,44.81703,20.45459,"44.81703, 20.45459","011",POINT(456876.7510451808 4962769.750655641)
"22012",Музеј пчеларства „Проф. Јован Живановић” Сремски Карловци,Muzej pčelarstva „Prof. Jovan Živanović” Sremski Karlovci,Музеји и галерије са фондом ,,Митрополита Стратимировића 8,Сремски Карловци,Сремски Карловци,ЈУЖНО-БАЧКИ ОКРУГ,Регион Војводине,"21",881 071,"063528155",muzejpcelarstva@gmail.com,,Жарко Живановић,Жарко Живановић,,музеи и галереи с фондом,Музей пчеловодства „Проф. Йован Живанович” Сремски-Карловци,博物馆与基金展览馆,斯雷姆斯基卡尔洛夫奇“约万·日瓦诺维奇教授“蜂业博物馆,,45.20209,19.93489,"45.20209, 19.93489","021",POINT(416348.6889306461 5005952.197686209)
"21955",Музеј рударства и металургије Бор,Museum of Mining and Metallurgy Bor,Музеји и галерије са фондом ,,Моше Пијаде 19,Бор,Бор,БОРСКИ ОКРУГ,Регион Јужне и Источне Србије,"30",423 560,060 6000 388,muzej5@mts.rs,https://sr-rs.facebook.com/Muzej-rudarstva-i-metalurgije-Bor-297660123640752/,Драгана Игњатовић,Драгана Игњатовић,,музеи и галереи с фондом,Музей горного дела и металлургии Бор,博物馆与基金展览馆,波尔采矿冶金博物馆,,44.07485,22.09945,"44.07485, 22.09945","030",POINT(588036.7177122104 4880773.906770611)
"21956",Музеј рудничко таковског краја Горњи Милановац,MUSEUM OF RUDNIK AND TAKOVO REGION,Музеји и галерије са фондом ,,Војводе Стевана Синђелића 7,Горњи Милановац,Горњи Милановац,МОРАВИЧКИ ОКРУГ,Регион Шумадије и Западне Србије,"32",721 335,,muzejgm@mts.rs,www.muzejgm.org,Александар Марушић,Нада Ђорђевић,,музеи и галереи с фондом,Музей Руднико-таковского края Горни-Милановац,博物馆与基金展览馆,上米拉诺瓦茨塔科夫采矿博物馆,,44.02396,20.46195,"44.02396, 20.46195","032",POINT(456879.6607118395 4874674.738523375)
"21957",Музеј савремене уметности Београд,"Museum of Contemporary Art, Belgrade",Музеји и галерије са фондом ,,Ушће 10,БЕОГРАД - Нови Београд,БЕОГРАД - Нови Београд,ГРАД БЕОГРАД,Београдски регион,"11",3115 713,,msub@msub.org.rs,www.msub.org.rs,"Слободан Накарада, в.д.",Сенка Ристивојевић,,музеи и галереи с фондом,Музей современного искусства Белград,博物馆与基金展览馆,贝尔格莱德现代艺术博物馆,,44.81958,20.44246,"44.81958, 20.44246","011",POINT(455919.62624486035 4963059.521073738)
"22013",Музеј савремене уметности Војводине,Museum of Contemporary Art Vojvodina,Музеји и галерије са фондом ,,Дунавска 37,Нови Сад,Нови Сад,ЈУЖНО-БАЧКИ ОКРУГ,Регион Војводине,"21",526 634,/,office@msuv.org,www.msuv.org,Радован Јокић,Нада Трпка,,музеи и галереи с фондом,Музей современного искусства Воеводины,博物馆与基金展览馆,伏伊伏丁那现代艺术博物馆,,45.25653,19.85317,"45.25653, 19.85317","021",POINT(410016.54190293746 5012087.948726931)
"22031",Музеј спорта,Museum of Sport of Faculty of Sport and Physical E,Музеји и галерије са фондом ,,Благоја Паровића 156,БЕОГРАД - Стари град,БЕОГРАД - Стари град,ГРАД БЕОГРАД,Београдски регион,"11","3541 878; 3531 100",063 8804 095,darko.mitrovic@fsfv.rs,http://www.dif.bg.ac.rs/sr/vesti/muzej-sporta-i-olimpizma,др Дарко Митровић,др Дарко Митровић,,музеи и галереи с фондом,Музей спорта,博物馆与基金展览馆,运动博物馆,,44.76348,20.42839,"44.76348, 20.42839","011",POINT(454763.4170739226 4956835.474450406)
"21958",Музеј Срема Сремска Митровица,The Museum of Srem,Музеји и галерије са фондом ,,Вука Караџића 3,Сремска Митровица,Сремска Митровица,СРЕМСКИ ОКРУГ,Регион Војводине,"22","621 150; 623 245",,info@muzejsrema.com,https://sr-rs.facebook.com/muzejsrema.sremskamitrovica/,"Владан Јовановић , помоћник директора",Владан Јовановић,,музеи и галереи с фондом,Музей Срема Сремска-Митровица,博物馆与基金展览馆,斯雷姆斯卡米特洛维察斯雷姆博物馆,,44.96737,19.60892,"44.96737, 19.60892","022",POINT(390299.37646619324 4980266.846678126)
"22014",Музеј српске медицине Српског лекарског друштва Београд,Serbian Medical Society's Museum of Serbian Medicine,Музеји и галерије са фондом ,Музеј науке и технике Београд,Џорџа Вашингтона 19,БЕОГРАД - Стари град,БЕОГРАД - Стари град,ГРАД БЕОГРАД,Београдски регион,"11",3234 261,,vukica60@yahoo.com,http://www.sld.org.rs/sr/o-nama/muzej/,Сузана Бјелогрлић,Будимир Павловић,,музеи и галереи с фондом,Музей сербской медицины Сербского общества врачей Белград,博物馆与基金展览馆,贝尔格莱德塞尔维亚医师协会塞尔维亚医学博物馆,,44.81625,20.47033,"44.81625, 20.47033","011",POINT(458120.6816024847 4962674.875533346)
"22015",Музеј Српске православне цркве Београд,Museum of The Serbian Orthodox Church,Музеји и галерије са фондом ,,Краља Петра 5,БЕОГРАД - Стари град,БЕОГРАД - Стари град,ГРАД БЕОГРАД,Београдски регион,"11",2638 875,,muzejspc@gmail.com,www.spc.rs,Владимир Радовановић,Владимир Радовановић,,музеи и галереи с фондом,Музей Сербской православной церкви Белград,博物馆与基金展览馆,贝尔格莱德塞尔维亚东正教会博物馆,,44.81747,20.45163,"44.81747, 20.45163","011",POINT(456643.0461107517 4962820.202104934)
"22490",Музеј Томе Росандића,Museum of Toma Rosandić,Музеји и галерије са фондом ,Музеј града Београда,Љубе Јовановића 3,БЕОГРАД - Савски венац,БЕОГРАД - Савски венац,ГРАД БЕОГРАД,Београдски регион,"11",2651 434,,office@mgb.org.rs,www.mgb.org.rs,Татјана Корићанац,Марија Марчета,,музеи и галереи с фондом,Музей Томы Росандича,博物馆与基金展览馆,托玛·罗桑迪奇博物馆,,44.7929,20.44268,"44.7929, 20.44268","011",POINT(455916.70373110415 4960095.691760712)
"21959",Музеј у Мајданпеку,Museum in Majdanpek,Музеји и галерије са фондом ,,Светог Саве 41,Мајданпек,Мајданпек,БОРСКИ ОКРУГ,Регион Јужне и Источне Србије,"30",583 459,063 7228 806,muzej.majdanpek@gmail.com,http://www.muzejmajdanpek.com/,Југослав Максимовић,Снежана Јевтић,,музеи и галереи с фондом,Музей в Майданпеке,博物馆与基金展览馆,马伊丹佩克博物馆,,44.42311,21.93682,"44.42311, 21.93682","030",POINT(574572.9667177103 4919295.232751136)
"21998",Музеј у Пријепољу,Museum in Prijepolje,Музеји и галерије са фондом ,,Владимира Перића Валтера 35,Пријепоље,Пријепоље,ЗЛАТИБОРСКИ ОКРУГ,Регион Шумадије и Западне Србије,"33","715 185; 710 162",060 7132300,muzejpri@mts.rs,www.muzejuprijepolju.org.rs,Славољуб Пушица,Мирослава Љиља Љујић,,музеи и галереи с фондом,Музей в Приеполе,博物馆与基金展览馆,普利耶珀列博物馆,,43.38914,19.64948,"43.38914, 19.64948","033",POINT(390617.973619185 4804915.253896426)
"22016",Музеј у Приштини Београд,Museum in Pristina - Belgrade,Музеји и галерије са фондом ,,Студентски трг 13,БЕОГРАД - Стари град,БЕОГРАД - Стари град,ГРАД БЕОГРАД,Београдски регион,"11",3281 888,063 429 349,muzejupristini@hotmail.com,www.mnemosyne.rs,Бранимир Јокић,"Бранимир Јокић, Maja Трајковић",,музеи и галереи с фондом,Музей в Приштине Белград,博物馆与基金展览馆,贝尔格莱德普里什蒂娜博物馆,,44.81989,20.45649,"44.81989, 20.45649","011",POINT(457029.10031793953 4963086.444158563)
"21960",Музеј у Смедереву,The Museum in Smederevo,Музеји и галерије са фондом ,,Омладинска 4,Смедерево,Смедерево,ПОДУНАВСКИ ОКРУГ,Регион Јужне и Источне Србије,"26",4622 138,"0648449553",info@mus.org.rs,www.mus.org.rs,Татјана Гачпар,Мирослав Лазић,,музеи и галереи с фондом,Музей в Смедерево,博物馆与基金展览馆,斯梅代雷沃博物馆,,44.66687,20.92751,"44.66687, 20.92751","026",POINT(494253.6696282787 4945947.519034887)
"22017",Музеј угљарства Сењски Рудник,The Mining museum Senjski Rudnik,Музеји и галерије са фондом ,,Сењски Рудник 48,Деспотовац,Деспотовац,ПОМОРАВСКИ ОКРУГ,Регион Шумадије и Западне Србије,"35",620 735,"0631036764",miroslav.nikolic@jppeu.rs,http://muzejugljarstva.rs/,Мирослав Николић,Мирослав Николић,,музеи и галереи с фондом,Музей угольного дела Сеньски-Рудник,博物馆与基金展览馆,色尼斯基鲁德尼克采煤博物馆,,43.99571,21.57164,"43.99571, 21.57164","035",POINT(545834.0587825691 4871555.17939575)
"22716",Музеј Хајдук Вељка,The Museum of Hajduk Veljko,Музеји и галерије са фондом ,Музеј Крајине Неготин,Станка Пауновића 17,Неготин,Неготин,БОРСКИ ОКРУГ,Регион Јужне и Источне Србије,"19",544 949,060 6668969,konakng@gmail.com,www.muzejkrajine.org.rs,Ивица Трајковић,Сања Радосављевић,,музеи и галереи с фондом,Музей Гайдука Велько,博物馆与基金展览馆,哈伊杜克维利卡博物馆,,44.22644,22.52918,"44.22644, 22.52918","019",POINT(622133.818065115 4898160.469456666)
"22026",Музеј Цептер,Zepter Museum,Музеји и галерије са фондом ,,Кнеза Михаила 42,БЕОГРАД - Стари град,БЕОГРАД - Стари град,ГРАД БЕОГРАД,Београдски регион,"11",3283 339,,muzejzepter@zepter.rs,www.zeptermuseum.rs,Ivana Simeonović Ćelić,Jelena Popović,,музеи и галереи с фондом,Музей Цептер,博物馆与基金展览馆,策普特尔博物馆,,44.81861,20.45587,"44.81861, 20.45587","011",POINT(456979.1301250951 4962944.584810237)
"22495",Музејска збирка Трстеник,Museum Collection at the National University of Trstenik,Музеји и галерије са фондом ,Народни универзитет Трстеник (Центар за културу),Књегиње Милице 16,Трстеник,Трстеник,РАСИНСКИ ОКРУГ,Регион Шумадије и Западне Србије,"37","203488","069607563",narodnits.muzej@gmail.com,http://trstenicani.com/Muzej/muzej.html,Светлана Лазић,Јелена Вукчевић,,музеи и галереи с фондом,Музейная коллекция Трстеник,博物馆与基金展览馆,特尔斯特尼克博物馆集,,43.61979,20.99936,"43.61979, 20.99936","037",POINT(499948.3620355907 4829645.164187606)
"22005",Музејска збирка Фудбалског клуба „Црвена звезда” Београд,Crvena Zvezda FC Museum,Музеји и галерије са фондом ,,Љутице Богдана 1а,БЕОГРАД - Савски венац,БЕОГРАД - Савски венац,ГРАД БЕОГРАД,Београдски регион,"11",2067 773,066 8011 006,office@crvenazvezdafk.com,www.crvenazvezdafk.com,Звездан Терзић,Предраг Тркуља,,музеи и галереи с фондом,Музейная коллекция Футбольного клуба „Красная звезда” Белград,博物馆与基金展览馆,贝尔格莱德红星足球俱乐部博物馆集,,44.78509,20.46327,"44.78509, 20.46327","011",POINT(457539.62106448744 4959217.176074668)
"22494",Музејска збирка Чајетина,Museum Collection Cajetina,Музеји и галерије са фондом ,Библиотека „Љубиша Р. Ђенић” Чајетина,Златиборска 1,Чајетина,Чајетина,ЗЛАТИБОРСКИ ОКРУГ,Регион Шумадије и Западне Србије,"31","3831 924; 3831 380",,ljubisardjenic@mts.rs,http://www.bibliotekacajetina.org.rs/zbirka,Снежана Ђенић,Данијела Ђуровић-Цицварић,,музеи и галереи с фондом,Музейная коллекция Чаетина,博物馆与基金展览馆,查耶蒂纳博物馆集,,43.7504,19.7152,"43.75040, 19.71520","031",POINT(396561.06015472655 4844952.988460224)
"22485",Музејска јединица Бачка Паланка,Bačka Palanka Museum,Музеји и галерије са фондом ,Културни центар Бачка Паланка,Трг братства и јединства 21,Бачка Паланка,Бачка Паланка,ЈУЖНО-БАЧКИ ОКРУГ,Регион Војводине,"21",60-45-933,064/88-22-159,muzejbp@gmail.com,,Марко Кнежић,Маја Куљић,,музеи и галереи с фондом,Музейное подразделение Бачка-Паланка,博物馆与基金展览馆,巴池帕兰卡博物馆单元,,45.25037,19.38313,"45.25037, 19.38313","021",POINT(373122.2450548283 5012035.515748973)
"22493",Музејска јединица Оџаци,Museum Unit Odzaci,Музеји и галерије са фондом ,Народна библиотека „Бранко Радичевић” Оџаци,Кнез Михајлова 41,Оџаци,Оџаци,ЗАПАДНО-БАЧКИ ОКРУГ,Регион Војводине,"25",5742 189,,"omuzej@neobee.net; libro@eunet.rs",http://bibliotekamuzejodzaci.org.rs/,Биљана Златковић,Бранислав Срдановић,,музеи и галереи с фондом,Музейное подразделение Оджаци,博物馆与基金展览馆,奥加茨博物馆单元,,45.50802,19.26217,"45.50802, 19.26217","025",POINT(364248.5172706862 5040856.319795334)
"22466",Музејски комплекс Кулпин - Пољопривредни музеј,The museum of  Vojvodina,Музеји и галерије са фондом ,Музеј Војводине Нови Сад,Трг ослобођења 7,Бачки Петровац,Бачки Петровац,ЈУЖНО-БАЧКИ ОКРУГ,Регион Војводине,"21",2286 716,,poljmuz@eunet.rs,www.muzejvojvodine.org.rs,В.д. директора др Драго Његован,Миленко Ушћебрка,,музеи и галереи с фондом,Музейный комплекс Кулпин - Сельскохозяйственный музей,博物馆与基金展览馆,库尔平博物馆建筑群农业博物馆,,45.40241,19.58727,"45.40241, 19.58727","021",POINT(389437.5546544411 5028625.303157896)
"25223",Народни музеј - Марићевића јаруга (Орашац),National museum,Музеји и галерије са фондом ,Народни музеј Аранђеловац,Мишарска 19,Аранђеловац,Аранђеловац,ШУМАДИЈСКИ ОКРУГ,Регион Шумадије и Западне Србије,"34",712 415,,muzej.arandjelovac@gmail.com,https://www.nmar.rs/,Дарко Павловић,Зорица Петровић,,музеи и галереи с фондом,Народный музей - Маричевича-яруга (Орашац),博物馆与基金展览馆,玛利切维奇峡谷（奥拉沙茨）国家博物馆,,44.33326,20.58266,"44.33326, 20.58266","034",POINT(466727.9858096135 4908973.061038669)
"22740",Народни музеј - Окућница Илије Милошевића,National museum,Музеји и галерије са фондом ,Народни музеј Аранђеловац,Мишарска 19,Аранђеловац,Аранђеловац,ШУМАДИЈСКИ ОКРУГ,Регион Шумадије и Западне Србије,"34","712 415; 702 415",064 8669 230,muzej.arandjelovac@gmail.com,http://www.muzejarandjelovac.rs/,в.д. Дарко Павловић,Зорица Петровић,,музеи и галереи с фондом,Народный музей - Усадьба Ильи Милошевича,博物馆与基金展览馆,伊利亚·米洛舍维奇庭院国家博物馆,,44.3045,20.54658,"44.30450, 20.54658","034",POINT(463833.8800649541 4905793.84464007)
"22491",Народни музеј - Пећина „Рисовача”,National museum - Risovaca Cave,Музеји и галерије са фондом ,Народни музеј Аранђеловац,Мишарска 19,Аранђеловац,Аранђеловац,ШУМАДИЈСКИ ОКРУГ,Регион Шумадије и Западне Србије,"34","712 415; 702 415",064 8669 230,muzej.arandjelovac@gmail.com,http://www.muzejarandjelovac.rs/,в.д. Дарко Павловић,Зорица Петровић,,музеи и галереи с фондом,Народный музей - Пещера „Рисовача”,博物馆与基金展览馆,“利索瓦查”洞穴国家博物馆,,44.30196,20.58248,"44.30196, 20.58248","034",POINT(466695.93562105077 4905496.515628775)
"21966",Народни музеј Аранђеловац,National museum Arandjelovac,Музеји и галерије са фондом ,,Мишарска 19,Аранђеловац,Аранђеловац,ШУМАДИЈСКИ ОКРУГ,Регион Шумадије и Западне Србије,"34","712 415; 702 415",064 8669 230,muzej.arandjelovac@gmail.com,http://www.muzejarandjelovac.rs/,в. д.  Дарко Павловић,Зорица Петровић,,музеи и галереи с фондом,Народный музей Аранджеловац,博物馆与基金展览馆,阿兰杰洛瓦茨国家博物馆,,44.3045,20.54658,"44.30450, 20.54658","034",POINT(463833.8800649541 4905793.84464007)
"22478",Народни музеј Бела Црква,Museum in Bela Crkva,Музеји и галерије са фондом ,Народна библиотека Бела Црква,1. октобар 38,Бела Црква,Бела Црква,ЈУЖНО-БАНАТСКИ ОКРУГ,Регион Војводине,"13",853 240,,muzejbelacrkva@gmail.com,https://sr-rs.facebook.com/muzejbelacrkva/,Радован Марковић,Игор Вокоун,,музеи и галереи с фондом,Народный музей Бела-Црква,博物馆与基金展览馆,贝拉策尔克瓦国家博物馆,,44.90356,21.4247,"44.90356, 21.42470","013",POINT(533528.9622999332 4972324.951067862)
"21980",Народни музеј Ваљево,National Museum of Valjevo,Музеји и галерије са фондом ,,Трг Војводе Мишића 3,Ваљево,Ваљево,КОЛУБАРСКИ ОКРУГ,Регион Шумадије и Западне Србије,"14",224 641,,nmva@ptt.rs,www.museum.org.rs,Јелена Николић Лекић,Јелена Николић Лекић,,музеи и галереи с фондом,Народный музей Валево - Учреждение культуры национального значения,博物馆与基金展览馆,国家重要文化机构瓦列沃国家博物馆,,44.2692,19.88566,"44.26920, 19.88566","014",POINT(411063.5715431328 4902376.7349932175)
"23679",Народни музеј Велико Градиште,Veliko Gradiste National Museum,Музеји и галерије са фондом ,,Кнеза Лазара 40,Велико Градиште,Велико Градиште,БРАНИЧЕВСКИ ОКРУГ,Регион Јужне и Источне Србије,"12",663 202,062 8074 839,narodnimuzej.velikogradiste@gmail.com,https://sr-rs.facebook.com/NarodniMuzejVelikoGradiste/,мр Драган Богичић,мр Драган Богичић,,музеи и галереи с фондом,Народный музей Велико-Градиште,博物馆与基金展览馆,大格拉迪什泰国家博物馆,,44.76477,21.51731,"44.76477, 21.51731","012",POINT(540938.4286857327 4956950.0150307575)
"21981",Народни музеј Врање,National museum of Vranje,Музеји и галерије са фондом ,,Пионирска 1,Врање,Врање,ПЧИЊСКИ ОКРУГ,Регион Јужне и Источне Србије,"17",423 875,062 423 789,muzejvranje@gmail.com,http://muzejvranje.rs/,Саша Стаменковић,Мирјана Јовановић,,музеи и галереи с фондом,Народный музей Вране,博物馆与基金展览馆,弗拉涅国家博物馆,,42.55495,21.89842,"42.55495, 21.89842","017",POINT(573755.2888300756 4711785.767926585)
"21965",Народни музеј Зајечар,National Museum Zajecar,Музеји и галерије са фондом ,,Драгослава Срејовића 2,Зајечар,Зајечар,ЗАЈЕЧАРСКИ ОКРУГ,Регион Јужне и Источне Србије,"19","422 930; 440 838",,muzejz19@mts.rs,https://sr-rs.facebook.com/Narodni-muzej-Zaje%C4%8Dar-266497133397431/,др археологије Маја Живић,Драган Андрејевић,,музеи и галереи с фондом,Народный музей Заечар,博物馆与基金展览馆,扎耶查尔国家博物馆,,43.90349,22.27881,"43.90349, 22.27881","019",POINT(602693.8430282996 4861948.559138846)
"21982",Народни музеј Зрењанин,National Museum of Zrenjanin,Музеји и галерије са фондом ,,Суботићева 1,Зрењанин,Зрењанин,СРЕДЊЕ-БАНАТСКИ ОКРУГ,Регион Војводине,"23",561 841,,museumzr@mts.rs,www.muzejzrenjanin.org.rs,Јелена Гвозденац Мартинов,Сања Врзић,,музеи и галереи с фондом,Народный музей Зренянин,博物馆与基金展览馆,兹雷尼亚宁国家博物馆,,45.37978,20.38977,"45.37978, 20.38977","023",POINT(452223.33937428705 5025321.649496528)
"21968",Народни музеј Кикинда,National Museum of Kikinda,Музеји и галерије са фондом ,,Трг Српских добровољаца 21,Кикинда,Кикинда,СЕВЕРНО-БАНАТСКИ ОКРУГ,Регион Војводине,"230","421 239; 422 500",064 8968 126,muzejkikinda@gmail.com,www.muzejkikinda.com,Лидија Милашиновић,Лидија Милашиновић,,музеи и галереи с фондом,Народный музей Кикинда,博物馆与基金展览馆,基金达国家博物馆,,45.83031,20.46504,"45.83031, 20.46504","0230",POINT(458450.3810727133 5075333.1835635835)
"21969",Народни музеј Крагујевац,The national museum Kragujevac,Музеји и галерије са фондом ,,Вука Караџића 1,Крагујевац,Крагујевац,ШУМАДИЈСКИ ОКРУГ,Регион Шумадије и Западне Србије,"34","333 302; 333 312; 331 782",,muzejkg@gmail.com,www.muzej.org.rs,Ненад Ђорђевић,Жарко Заграђанин,,музеи и галереи с фондом,Народный музей Крагуевац,博物馆与基金展览馆,克拉古耶瓦茨国家博物馆,,44.00933,20.91165,"44.00933, 20.91165","034",POINT(492917.72732376884 4872912.897936053)
"21970",Народни музеј Краљево,National Museum of Kraljevo,Музеји и галерије са фондом ,,Трг Светога Саве 2,Краљево,Краљево,РАШКИ ОКРУГ,Регион Шумадије и Западне Србије,"36",315 350,,office@nmkv.rs,www.nmkv.rs,Драган Драшковић,"Тиана Медар, Олег Романов",,музеи и галереи с фондом,Народный музей Кралево,博物馆与基金展览馆,克拉列沃国家博物馆,,43.72532,20.68365,"43.72532, 20.68365","036",POINT(474520.1954745824 4841414.094790563)
"21971",Народни музеј Крушевац,National Museum Krusevac,Музеји и галерије са фондом ,,Трг деспота Стефана 15,Крушевац,Крушевац,РАСИНСКИ ОКРУГ,Регион Шумадије и Западне Србије,"37",418 540,065 3015 825,nmuzejks@gmail.com,https://sr-rs.facebook.com/Narodni-muzej-Kru%C5%A1evac-110960156983/,Горан Васић,Звездана Лазаревић,,музеи и галереи с фондом,Народный музей Крушевац,博物馆与基金展览馆,克鲁舍瓦茨国家博物馆,,43.58353,21.32155,"43.58353, 21.32155","037",POINT(525959.6358708628 4825668.347298827)
"21972",Народни музеј Лесковац,National Museum of Leskovac,Музеји и галерије са фондом ,,Стојана Љубића 2,Лесковац,Лесковац,ЈАБЛАНИЧКИ ОКРУГ,Регион Јужне и Источне Србије,"16","212975",,nmleskovac@gmail.com,http://muzejleskovac.rs/,Мира Ниношевић,Мира Ниношевић,,музеи и галереи с фондом,Народный музей Лесковац,博物馆与基金展览馆,莱斯科瓦茨国家博物馆,,42.99423,21.94641,"42.99423, 21.94641","016",POINT(577147.7886611662 4760608.565126623)
"22020",Народни музеј Пожаревац,National Museum of Pozarevac,Музеји и галерије са фондом ,,Др Воје Дулића 10,Пожаревац,Пожаревац,БРАНИЧЕВСКИ ОКРУГ,Регион Јужне и Источне Србије,"12","223 597; 220 794",,muzejpo@ptt.rs,http://muzejpozarevac.org.rs/,Др Гордан Бојковић,Слободан Стојићевић,,музеи и галереи с фондом,Народный музей Пожаревац,博物馆与基金展览馆,波扎莱瓦茨国家博物馆,,44.62183,21.1868,"44.62183, 21.18680","012",POINT(514819.22226761584 4940958.872156325)
"21977",Народни музеј Топлице - Прокупље,National Museum of Toplica,Музеји и галерије са фондом ,,Ратка Павловића 31,Прокупље,Прокупље,ТОПЛИЧКИ ОКРУГ,Регион Јужне и Источне Србије,"27","321 694; 322 151",060 0338 900,muzejtoplice@gmail.com,www.muzejtoplice.org.rs,Дарко Жарић,Олгица Николић,,музеи и галереи с фондом,Народный музей Топлице - Прокупле,博物馆与基金展览馆,普罗库普列托普里策国家博物馆,,43.23576,21.58992,"43.23576, 21.58992","027",POINT(547899.2131863557 4787164.9996077465)
"21978",Народни музеј у Београду,National Museum in Belgrade,Музеји и галерије са фондом ,,Трг Републике 1а,БЕОГРАД - Стари град,БЕОГРАД - Стари град,ГРАД БЕОГРАД,Београдски регион,"11",3306 000,,kontakt@narodnimuzej.rs,www.narodnimuzej.rs,Бојана Борић Брешковић,Лидија Хам,,музеи и галереи с фондом,Народный музей в Белграде,博物馆与基金展览馆,贝尔格莱德国家博物馆,,44.81669,20.45991,"44.81669, 20.45991","011",POINT(457297.12997415295 4962729.173605808)
"21976",Народни музеј у Смедеревској Паланци,National museum in Smederevska Palanka,Музеји и галерије са фондом ,,Трг хероја 5,Смедеревска Паланка,Смедеревска Паланка,ПОДУНАВСКИ ОКРУГ,Регион Јужне и Источне Србије,"26","318 239; 314 399",,info@nmsp.rs,www.nmsp.rs,Стеван Мартиновић,Биљана Живковић,,музеи и галереи с фондом,Народный музей в Смедеревска-Паланке,博物馆与基金展览馆,斯梅代雷沃帕兰卡国家博物馆,,44.36625,20.95647,"44.36625, 20.95647","026",POINT(496531.5611275516 4912553.6519709965)
"21979",Народни музеј Ужице,Uzice's National Museum,Музеји и галерије са фондом ,,Димитрија Туцовића 18,Ужице,Ужице,ЗЛАТИБОРСКИ ОКРУГ,Регион Шумадије и Западне Србије,"31","521 360; 510 084; 520 657",,nmuzejuzice@ptt.rs,http://www.nmuzice.org.rs/,Никола Гогић,Станојка Миливојевић,,музеи и галереи с фондом,Народный музей Ужице,博物馆与基金展览馆,乌日策国家博物馆,,43.85395,19.84657,"43.85395, 19.84657","031",POINT(407297.97146343725 4856298.11410451)
"21967",Народни музеј Чачак,National Museum Cacak,Музеји и галерије са фондом ,,Цара Душана 1,Чачак,Чачак,МОРАВИЧКИ ОКРУГ,Регион Шумадије и Западне Србије,"32","222 169; 349 317",065 2222 169,muzejcacak@gmail.com,www.cacakmuzej.org.rs,Делфина Рајић,Слободан Богојевић,,музеи и галереи с фондом,Народный музей Чачак,博物馆与基金展览馆,查查克国家博物馆,,43.89344,20.34851,"43.89344, 20.34851","032",POINT(447673.92972892075 4860243.827643189)
"21975",Народни музеј Шабац,National Museum Sabac,Музеји и галерије са фондом ,,Масарикова 13,Шабац,Шабац,МАЧВАНСКИ ОКРУГ,Регион Шумадије и Западне Србије,"15",350 287,,muzejsabac@ptt.rs,https://sr-rs.facebook.com/Narodni-muzej-%C5%A0abac-169196809774495/,Марко Бингулац,Весна Тодоровић,,музеи и галереи с фондом,Народный музей Шабац,博物馆与基金展览馆,沙巴茨国家博物馆,,44.75528,19.69261,"44.75528, 19.69261","015",POINT(396519.8925814455 4956597.017648366)
"21983",Педагошки музеј Београд,Museum of Pedagogy,Музеји и галерије са фондом ,,Узун Миркова 14,БЕОГРАД - Стари град,БЕОГРАД - Стари град,ГРАД БЕОГРАД,Београдски регион,"11",2627 538,,office@pedagoskimuzej.org.rs,www.pedagoskimuzej.org.rs,Божидар Зејак,Maja Nikolova,,музеи и галереи с фондом,Педагогический музей Белград,博物馆与基金展览馆,贝尔格莱德教育博物馆,,44.821,20.4546,"44.82100, 20.45460","011",POINT(456880.50077703013 4963210.748154302)
"21984",Позоришни музеј Војводине Нови Сад,Theatre museum of Vojvodina,Музеји и галерије са фондом ,,Краља Александра 5/I,Нови Сад,Нови Сад,ЈУЖНО-БАЧКИ ОКРУГ,Регион Војводине,"21",6613 322,,info@pmv.org.rs,www.pmv.org.rs,Миодраг Кајтез,Биљана Нишкановић,,музеи и галереи с фондом,Театральный музей Воеводины Нови-Сад,博物馆与基金展览馆,诺维萨德伏伊伏丁那剧院博物馆,,45.25394,19.84429,"45.25394, 19.84429","021",POINT(409315.6705275127 5011810.165198065)
"21985",Природњачки музеј Београд,"Natural History Museum, Belgrade",Музеји и галерије са фондом ,,Његошева 51,БЕОГРАД - Врачар,БЕОГРАД - Врачар,ГРАД БЕОГРАД,Београдски регион,"11","3442 265; 3442 149; 3442 147",,nhmbeo@nhmbeo.rs,www.nhmbeo.rs,др Милан Пауновић,Александра Савић,,музеи и галереи с фондом,Естествоведческий музей Белград,博物馆与基金展览馆,贝尔格莱德自然博物馆,,44.80248,20.47118,"44.80248, 20.47118","011",POINT(458177.9385504969 4961144.816235604)
"22715",Родна кућа Стевана Мокрањца,The birth house of Stevan Mokranjac,Музеји и галерије са фондом ,Музеј Крајине Неготин,Доситејева 1б,Неготин,Неготин,БОРСКИ ОКРУГ,Регион Јужне и Источне Србије,"19","543 341; 545 072",061 6614391,muzejnegotin@gmail.com,www.muzejkrajine.org.rs,Ивица Трајковић,Весна Јањић,,музеи и галереи с фондом,Родной дом Стевана Мокраняца,博物馆与基金展览馆,“斯特凡·莫克拉尼亚茨”出生地故居,,44.22577,22.53016,"44.22577, 22.53016","019",POINT(622213.476619958 4898087.508213238)
"22000",Савремена галерија Суботица,Contemporary Art Gallery Subotica,Музеји и галерије са фондом ,,Парк Ференца Рајхла 5,Суботица,Суботица,СЕВЕРНО-БАЧКИ ОКРУГ,Регион Војводине,"24","553 725; 552 651",065 9 553 725,sekretar.sgsu@gmail.com,www.sgsu.org.rs,Нела Тонковић,Јасмина Јованчић Видаковић,,музеи и галереи с фондом,Современная галерея Суботица,博物馆与基金展览馆,苏博蒂察现代展览馆,,46.10151,19.6687,"46.10151, 19.66870","024",POINT(397103.3769432057 5106187.517100198)
"22731",Салон Музеја савремене уметности,The Salon of the Museum of Contemporary Art,Музеји и галерије са фондом ,Музеј савремене уметности Београд,Париска 14,БЕОГРАД - Стари град,БЕОГРАД - Стари град,ГРАД БЕОГРАД,Београдски регион,"11",2630 940,,msub@msub.org.rs,www.msub.org.rs,"Слободан Накарада, в.д.",Сенка Ристивојевић,,музеи и галереи с фондом,Салон Музей современного искусства,博物馆与基金展览馆,现代艺术博物馆沙龙,,44.81943,20.45288,"44.81943, 20.45288","011",POINT(456743.34306285245 4963037.26040993)
"22506",Спомен збирка „Јован Јовановић Змај” - депанданс,Memorial Collection,Музеји и галерије са фондом ,"Музеј града Новог Сада, Петроварадин",Ј. Ј. Змаја 1,Ириг,Ириг,СРЕМСКИ ОКРУГ,Регион Војводине,"22",462 810,062/ 807 19 47,muzejgrada.ns@gmail.com,www.museumns.rs,MSc Весна Јовичић,Александра Вуковић,,музеи и галереи с фондом,Мемориальная коллекция „Йован Йованович Змай” - депанданс,博物馆与基金展览馆,“约万·约万诺维奇·兹玛伊”附属纪念收藏集,,45.099729,19.860893,"45.099729, 19.860893","022",POINT(410376.83662386803 4994660.228563112)
"22022",Спомен комплекс Церска битка Текериш,"Cultural Center ""Vuk Karadžic"" Loznica",Музеји и галерије са фондом ,Центар за културу „Вук Караџић” Лозница,Текериш село Текериш,Лозница,Лозница,МАЧВАНСКИ ОКРУГ,Регион Шумадије и Западне Србије,"15",850 077,,ckvkaradzic@mts.rs,www.ckvkaradzic.org.rs,Снежана Нешковић Симић,Горан Вилић,,музеи и галереи с фондом,Мемориальный комплекс Церская битва Текериш,博物馆与基金展览馆,特科利什策尔战役纪念建筑群,,44.55453,19.52815,"44.55453, 19.52815","015",POINT(383100.12869652826 4934519.818396269)
"22734",Спомен кућа Косте Стаменковића,The Memorial house of Kosta Stamenkovic,Музеји и галерије са фондом ,Народни музеј Лесковац,Топличког устанка 25,Лесковац,Лесковац,ЈАБЛАНИЧКИ ОКРУГ,Регион Јужне и Источне Србије,"16","212975",,nmleskovac@gmail.com,http://muzejleskovac.rs/,Мира Ниношевић,Слађана Рајковић,,музеи и галереи с фондом,Дом-музей Косты Стаменковича,博物馆与基金展览馆,科斯塔·斯塔门科维奇纪念故居,,42.99212,21.95605,"42.99212, 21.95605","016",POINT(577936.2768611462 4760383.148560786)
"22496",Спомен музеј Иве Андрића,Museum of Ivo Andrić,Музеји и галерије са фондом ,Музеј града Београда,Андрићев венац 8/I,БЕОГРАД - Стари град,БЕОГРАД - Стари град,ГРАД БЕОГРАД,Београдски регион,"11",3238 397,,office@mgb.org.rs,www.mgb.org.rs,Татјана Корићанац,Марија Марчета,,музеи и галереи с фондом,Дом-музей Иво Андрича,博物馆与基金展览馆,伊万安德里奇纪念博物馆,,44.80959,20.46389,"44.80959, 20.46389","011",POINT(457606.61221121735 4961938.396092912)
"21987","Спомен-збирка Павла Бељанског, Нови Сад","The Pavle Beljanski Memorial Collection, Novi Sad",Музеји и галерије са фондом ,,Трг галерија 2,Нови Сад,Нови Сад,ЈУЖНО-БАЧКИ ОКРУГ,Регион Војводине,"21","528 185; 4729 966",069 528 1855,kontakt@pavle-beljanski.museum,www.pavle-beljanski.museum,"Мр Милана Квас, в. д. управника",Јулијана Стојсављевић,,музеи и галереи с фондом,Мемориальная коллекция Павла Белянского Нови-Сад,博物馆与基金展览馆,诺维萨德帕维尔·贝利扬科斯基纪念收藏集,,45.25229,19.8449,"45.25229, 19.84490","021",POINT(409360.91001125064 5011626.177602867)
"21986",Спомен-парк „Крагујевачки октобар'',"Memorial Park ""Kragujevački oktobar""",Музеји и галерије са фондом ,,Десанкин венац бб,Крагујевац,Крагујевац,ШУМАДИЈСКИ ОКРУГ,Регион Шумадије и Западне Србије,"34",335 607,,direktor@spomenpark.rs,www.spomenpark.rs,Маријана Станковић,Јелена Давидовић,,музеи и галереи с фондом,Мемориальный парк „Крагуевацкий октябрь'',博物馆与基金展览馆,“克拉古耶瓦茨十月”纪念公园,,44.015859,20.8774115,"44.015859, 20.8774115","034",POINT(490174.1941032844 4873641.571426122)
"21999",Српски музеј хлеба - Jеремија,Serbian Museum of Bread- Jeremija,Музеји и галерије са фондом ,,Браће Видаковић 83,Пећинци,Пећинци,СРЕМСКИ ОКРУГ,Регион Војводине,"22",436 141,062 209 593,info@muzejhleba.rs,www.muzejhleba.rs,Слободан и Биљана Јеремић,Јелена Ристић,,музеи и галереи с фондом,Сербский музей хлеба - Еремия,博物馆与基金展览馆,耶莱米亚塞尔维亚面包博物馆,,44.91517,19.96365,"44.91517, 19.96365","022",POINT(418199.31066696445 4974049.299709885)
"22733",Текстилни музеј у Стројковцу,Textille Museum in Stojkovac,Музеји и галерије са фондом ,Народни музеј Лесковац,Село Стројковац бб,Лесковац,Лесковац,ЈАБЛАНИЧКИ ОКРУГ,Регион Јужне и Источне Србије,"16","212975",,nmleskovac@gmail.com,http://muzejleskovac.rs/,Мира Ниношевић,Слађана Рајковић,,музеи и галереи с фондом,Текстильный музей в Стройковаце,博物馆与基金展览馆,斯特洛伊科瓦茨纺织博物馆,,42.9056027,21.9224499,"42.9056027, 21.9224499","016",POINT(575302.6116024558 4750744.923308616)
"21988",Уметничка галерија „Надежда Петровић” Чачак,Umetnička galerija „Nadežda Petrović” Čačak,Музеји и галерије са фондом ,,Цара Душана 6,Чачак,Чачак,МОРАВИЧКИ ОКРУГ,Регион Шумадије и Западне Србије,"32","322 375; 325 015",,galerija@nadezdapetrovic.rs,www.nadezdapetrovic.rs,Милица Петронијевић,Бранко Ћаловић,,музеи и галереи с фондом,"Художественная галерея „Надежда Петрович” Чачак, Учреждение культуры национального значения",博物馆与基金展览馆,国家重要文化机构查查克“纳德日达·彼得洛维奇”艺术展览馆,,43.89398,20.34852,"43.89398, 20.34852","032",POINT(447675.20573851746 4860303.7969580935)
"25222",Фондација Миленин дом-Галерија Милене Павловић Барили,Gallery of Milena Pavlovic - Barili,Музеји и галерије са фондом ,Фондација Миленин дом-Галерија Милене Павловић-Барили,Др Воје Дулића 14,Пожаревац,Пожаревац,БРАНИЧЕВСКИ ОКРУГ,Регион Јужне и Источне Србије,"12",524 173,,fondacijampb@ptt.rs,www.fondacijamilenindom.com,в.д.управитељца Љиљана Дабић,Ивана Илић,,музеи и галереи с фондом,Фонд Миленин дом-Галерея Милены Павлович Барили,博物馆与基金展览馆,米兰娜之家基金会米兰娜·帕弗罗维奇·巴利利展览馆,,44.62237,21.18679,"44.62237, 21.18679","012",POINT(514818.29158628295 4941018.853513716)
