id,naziv_ustanove,naziv_ustanove_eng,tip_ustanove,maticna_ustanova,ulica_broj,mesto,opstina,okrug,region,poz_broj,tel,mobil_tel,e_mail,website,direktor,kontakt_lice,tip_ustanove_eng,tip_ustanove_rus,ime_ustanova_rus,tip_ustanova_kina,ime_ustanova_kina,delete,latitude,longitude,coordinate,pozivni_broj,geometry
"21833",Дом културе Пећ,Cultural Center Peć,Поливалентни центри за културу,,Карађорђева 192,Пећ,Пећ,ПЕЋКИ ОКРУГ,Регион Косовo и Метохијa,"39","21 709; 21 506",,,,,,Cultural Center,многофункциональные культурные центры,Дом культуры  Печ,多功能文化中心,佩奇文化之家,,42.658964,20.289472,"42.658964, 20.289472","039",POINT(441766.64516420505 4723189.145161328)
"21781",Dom kulture Doina Uzdin,"Cultural Center ""Doina"" Uzdin",Поливалентни центри за културу,,Тудор Владимиреску 168,Ковачица,Ковачица,ЈУЖНО-БАНАТСКИ ОКРУГ,Регион Војводине,"13",673 102,069 1444 393,ccdoinauzdin@yahoo.com,https://sr-rs.facebook.com/Dom-Kulture-Doina-Uzdin-747426538701487/,Ramjanc Marius,Ramjanc Marius,Cultural Center,многофункциональные культурные центры,Дом культуры Доина Уздин,多功能文化中心,乌兹丁多伊纳文化之家,,45.2040053,20.6214604,"45.2040053, 20.6214604","013",POINT(470271.352226913 5005682.898506715)
"21731",Kulturni centar Novi Pazar,Cultural Center Novi Pazar,Поливалентни центри за културу,,Stevana Nemanje 2,Нови Пазар,Нови Пазар,РАШКИ ОКРУГ,Регион Шумадије и Западне Србије,"20","315 878; 313 069",064 8186 271,domkulture_np@yahoo.com,www.kcnovipazar.com,Husein Memić,Elma Šabanović,Cultural Center,многофункциональные культурные центры,Культурный центр Нови-Пазар,多功能文化中心,新帕扎尔文化中心,,43.141049,20.518331,"43.141049, 20.518331","020",POINT(460829.8457659026 4776590.827196623)
"23700",Банатски културни центар „Ново Милошево“,Banat Cultural Center,Поливалентни центри за културу,,ЈНА 35,Нови Бечеј,Нови Бечеј,СРЕДЊЕ-БАНАТСКИ ОКРУГ,Регион Војводине,"23",781 552,,banatskikulturnicentar@gmail.com,www.banatskikulturnicentar.blogspot.com,,,Cultural Center,многофункциональные культурные центры,Банатский культурный центр „Ново Милошево“,多功能文化中心,巴纳特“新米洛舍沃”文化中心,,45.7253339,20.3058672,"45.7253339, 20.3058672","023",POINT(445986.39561950637 5063765.211870471)
"23707",Градски културни центар Ужице,Uzice City Cultural Centre,Поливалентни центри за културу,,Трг Светог Саве 11,Ужице,Ужице,ЗЛАТИБОРСКИ ОКРУГ,Регион Шумадије и Западне Србије,"31",601 534,,gkcuzice@gmail.com,www.gkcuzice.rs,,,Cultural Center,многофункциональные культурные центры,Городской культурный центр Ужице,多功能文化中心,乌日策城市文化中心,,43.8564662,19.8414909,"43.8564662, 19.8414909","031",POINT(406893.6736602337 4856583.284960843)
"21890","Гуарнериус, Центар лепих уметности Јована Колунџије Београд",Guarnerius Art Centre,Поливалентни центри за културу,,Џорџа Вашингтона 12,БЕОГРАД - Стари град,БЕОГРАД - Стари град,ГРАД БЕОГРАД,Београдски регион,"11","3346 807; 3345 237",,info@guarnerius.rs,www.guarnerius.rs,Миљана Колунџија,Јелена Папић,Cultural Center,многофункциональные культурные центры,"Гуарнериус, Центр изящных искусств Йована Колунджии Белград",多功能文化中心,贝尔格莱德“约万·科隆知亚”古阿尔内利乌斯美术中心,,44.8177918,20.4653913,"44.8177918, 20.4653913","011",POINT(457731.32066087227 4962848.700809215)
"21689",Дечији културни центар „Мајдан” Београд,Children’s Cultural Center Majdan,Поливалентни центри за културу,,Козјачка 3-5,БЕОГРАД - Савски венац,БЕОГРАД - Савски венац,ГРАД БЕОГРАД,Београдски регион,"11",2651 849,,office@dkcmajdan.org.rs,www.dkcmajdan.org.rs,Угљеша Дапчевић,Угљеша Дапчевић,Cultural Center,многофункциональные культурные центры,Детский культурный центр „Майдан” Белград,多功能文化中心,贝尔格莱德“马伊丹”儿童文化中心,,44.7940714,20.4445347,"44.7940714, 20.4445347","011",POINT(456064.2969849401 4960224.811032638)
"21692",Дечији културни центар Београд,Children's Cultural Center Belgrade,Поливалентни центри за културу,,Таковска 8,БЕОГРАД - Палилула,БЕОГРАД - Палилула,ГРАД БЕОГРАД,Београдски регион,"11","3242 011; 3242 012",,info@dkcb.rs,www.dkcb.rs,Оливера Јежина,Ивана Теодоровић,Cultural Center,многофункциональные культурные центры,Детский культурный центр Белград,多功能文化中心,贝尔格莱德儿童文化中心,,44.8113842,20.4676688,"44.8113842, 20.4676688","011",POINT(457906.72942215565 4962135.738833088)
"21811",Дечији културно-образовни и рекреативни центар Ниш,Children's Cultural-Educational Center Niš,Поливалентни центри за културу,,Iх бригаде 10,Ниш,Ниш,НИШАВСКИ ОКРУГ,Регион Јужне и Источне Србије,"18",514 748,,,https://www.decijicentarnis.com/,Александра Давинић,Александра Давинић,Cultural Center,многофункциональные культурные центры,Детский культурно-образовательный и физкультурно-реабилитационный центр Ниш,多功能文化中心,尼什儿童文化教育创新中心,,43.3160705,21.9033284,"43.3160705, 21.9033284","018",POINT(573250.4673494608 4796311.0112612145)
"21909",Дом културе „25.мај” Долово,"Cultural Center ""25.maj""",Поливалентни центри за културу,,Краља Петра Првог 36,Панчево,Панчево,ЈУЖНО-БАНАТСКИ ОКРУГ,Регион Војводине,"13","634006",,biblioteka.dolovo@gmail.com,https://sr-rs.facebook.com/dkdolovo/,Бранислав Павлов,Жаклина Мијалковић,Cultural Center,многофункциональные культурные центры,Дом культуры  „25-е мая” Долово,多功能文化中心,多洛沃“五月二十五日”文化之家,,44.8999198,20.8741223,"44.8999198, 20.8741223","013",POINT(490061.6557197721 4971840.56249811)
"21684",Дом културе „3. октобар”` Банатско Ново Село,"Cultural Center  ""Third October""  Banatsko Novo Selo",Поливалентни центри за културу,,Маршала Тита 73,Панчево,Панчево,ЈУЖНО-БАНАТСКИ ОКРУГ,Регион Војводине,"13",615 114,,dkbns@donet.rs,http://kultura-kovacica.com/pocetna/,Сорин Бољанац,Сорин Бољанац,Cultural Center,многофункциональные культурные центры,Дом культуры  „3-е октября” Банатско-Ново-Село,多功能文化中心,巴纳特新村“十月三日”文化之家,,44.990402,20.783569,"44.990402, 20.783569","013",POINT(482939.07883712807 4981906.966498285)
"21775",Дом културе „3. октобар” Ковачица,"Cultural Center  ""Third October"" Kovačica",Поливалентни центри за културу,,Маршала Тита 46,Ковачица,Ковачица,ЈУЖНО-БАНАТСКИ ОКРУГ,Регион Војводине,"13",661 112,062 8850 816,dkulture@gmail.com,http://www.bnselo.rs.sr/Dom%20kulture/dom_kulture_glavna.htm,Јан Марко,Јан Марко,Cultural Center,многофункциональные культурные центры,Дом культуры  „3-е октября” Ковачица,多功能文化中心,科瓦奇查“十月三日”文化之家,,45.1117304,20.6172689,"45.1117304, 20.6172689","013",POINT(469893.6193620565 4995433.594901208)
"21739",Дом културе „4. октобар” Банатски Брестовац,"Cultural Center ""Forth October"" Banatski Brestovac",Поливалентни центри за културу,,Панчевачка 4,Панчево,Панчево,ЈУЖНО-БАНАТСКИ ОКРУГ,Регион Војводине,"13",626 133,,,https://sr-rs.facebook.com/Dom-Kulture-Banatski-Brestovac-951854701574349/,Јованка Грујичић,Јованка Грујичић,Cultural Center,многофункциональные культурные центры,Дом культуры  „4-е октября” Банатски-Брестовац,多功能文化中心,巴纳塔布雷斯托瓦茨“十月四日”文化之家,,44.730929,20.7990469,"44.730929, 20.7990469","013",POINT(484087.8685306562 4953080.368244466)
"21784",Дом културе „Абдула Крашница” Прешево,"Cultural Center ""Abdula Krašnica"" Preševo",Поливалентни центри за културу,,15. новембра 90,Прешево,Прешево,ПЧИЊСКИ ОКРУГ,Регион Јужне и Источне Србије,"17","668 546; 660 326",,naser_nuredini@hotmail.com,http://www.kt.gov.rs/cr/articles/opstine/opstina-presevo/,Насер Нуредини,Насер Нуредини,Cultural Center,многофункциональные культурные центры,Дом культуры  „Абдула Крашница” Прешево,多功能文化中心,普莱舍沃“阿卜杜拉·科拉什尼查”文化之家,,42.3045569,21.65946,"42.3045569, 21.65946","017",POINT(554353.8252250359 4683802.270268874)
"21688",Дом културе „Влада Марјановић” Старо Село,Culture Organisation `Vlada Marjanovic` Staro selo,Поливалентни центри за културу,,Булевар ослобођења бб,Велика Плана,Велика Плана,ПОДУНАВСКИ ОКРУГ,Регион Јужне и Источне Србије,"26",841 257,,domkulture.staroselo@gmail.com,https://sr-rs.facebook.com/dom.selo/,Југослав Тодоровић,,Cultural Center,многофункциональные культурные центры,Дом культуры  „Влада Марьянович” Старо-Село,多功能文化中心,老村“弗拉达·马尔亚诺维奇”文化之家,,44.290665,21.089885,"44.290665, 21.089885","026",POINT(507171.1751556281 4904161.114541268)
"21898",Дом културе „Владимир М. Фијат” Самош,"Cultural Centre ""Vladimir M. Fijat"" Samos",Поливалентни центри за културу,,Маршала Тита 23,Ковачица,Ковачица,ЈУЖНО-БАНАТСКИ ОКРУГ,Регион Војводине,"13",675 323,,,http://vmfsamos.business.site/,Зорана Живанов,"Олгица Дежин, Саша Омаљев",Cultural Center,многофункциональные культурные центры,Дом культуры  „Владимир М. Фият” Самош,多功能文化中心,萨莫什“弗拉迪米尔·姆·菲亚特”文化之家,,45.2017009,20.7714811,"45.2017009, 20.7714811","013",POINT(482052.5188831804 5005382.607978798)
"21876",Дом културе „Вук Караџић” Омољица,Culture centre Omoljica,Поливалентни центри за културу,,Трг Светог Саве 1,Панчево,Панчево,ЈУЖНО-БАНАТСКИ ОКРУГ,Регион Војводине,"13",617 005,061 515 0981,dkomoljica@gmail.com,,Никола Ђукановић,Ксенија Јованов,Cultural Center,многофункциональные культурные центры,Дом культуры  „Вук Караджич” Омолица,多功能文化中心,奥姆利查“武克·卡拉季奇”文化之家,,44.758326,20.7349454,"44.758326, 20.7349454","013",POINT(479022.0099819591 4956138.218519104)
"21899",Дом културе „Вук Караџић” Рибари,"Cultural Center ""Vuk Karadzic"" Ribari",Поливалентни центри за културу,,Дринска бб,Шабац,Шабац,МАЧВАНСКИ ОКРУГ,Регион Шумадије и Западне Србије,"15",270 565,,,,Милета Попић,,Cultural Center,многофункциональные культурные центры,Дом культуры  „Вук Караджич” Рибари,多功能文化中心,利巴利“武克·卡拉季奇”文化之家,,44.719139,19.424763,"44.719139, 19.424763","015",POINT(375242.0070344318 4952957.949449549)
"21911",Дом културе „Вучје”,"Cultural Center ""Vucje""",Поливалентни центри за културу,,Косте Стаменковића бб,Лесковац,Лесковац,ЈАБЛАНИЧКИ ОКРУГ,Регион Јужне и Источне Србије,"16",3427 362,,dkvucje@gmail.com,https://sr-rs.facebook.com/Dom-Kulture-Vucje-1533791616885637/,Новица Живковић,Иван Гавриловић,Cultural Center,многофункциональные культурные центры,Дом культуры  „Вучье”,多功能文化中心,“乌契耶”文化之家,,42.8660331,21.9096029,"42.8660331, 21.9096029","016",POINT(574301.3397450324 4746339.416769933)
"21735",Дом културе „Доситеј Обрадовић”  Ириг,"Cultural Center ""Dositej Obradović""  Irig",Поливалентни центри за културу,,Рибарски трг 37,Ириг,Ириг,СРЕМСКИ ОКРУГ,Регион Војводине,"22",461 030,,,,Стеван Казимировић,Стеван Казимировић,Cultural Center,многофункциональные культурные центры,Дом культуры  „Досифей Обрадович”  Ириг,多功能文化中心,伊里格”多西泰伊·奥布拉多维奇“文化之家,,45.1011083,19.8569727,"45.1011083, 19.8569727","022",POINT(410070.55915495136 4994817.805675801)
"21702",Дом културе „Жарко Зрењанин” Иваново,"Cultural Center ""Žarko Zrenjanin"" Ivanovo",Поливалентни центри за културу,,Доже Ђерђа 62,Панчево,Панчево,ЈУЖНО-БАНАТСКИ ОКРУГ,Регион Војводине,"13",629 129,,"kalapislili@yahoo.com, marko.guran@gmail.com",,Марко Гуран,Марко Гуран,Cultural Center,многофункциональные культурные центры,Дом культуры  „Жарко Зренянин” Иваново,多功能文化中心,伊万诺沃“扎尔科·兹雷尼亚宁”文化之家,,44.7412615,20.6984913,"44.7412615, 20.6984913","013",POINT(476129.79382588074 4954252.696294579)
"21674",Дом културе „Јован Томић” Нова Варош,"Cultural Center ""Jovan Tomić"" Nova Varoš",Поливалентни центри за културу,,Трг војводе Петра Бојовића 5,Нова Варош,Нова Варош,ЗЛАТИБОРСКИ ОКРУГ,Регион Шумадије и Западне Србије,"33","61 130; 61 964",,domkulturenv@gmail.com,http://www.dknv.rs/,Жељко Томовић,Фарук Ибишбеговић,Cultural Center,многофункциональные культурные центры,Дом культуры  „Йован Томич” Нова-Варош,多功能文化中心,新瓦洛什“约万·托米奇”文化之家,,43.4592933,19.8074511,"43.4592933, 19.8074511","033",POINT(403524.0522045448 4812511.2469332535)
"21796",Дом културе „Јожеф Атила” Дебељача,"Cultural Center ""Jožef Atila""  Debeljača",Поливалентни центри за културу,,Трг Маршала Тита 18,Ковачица,Ковачица,ЈУЖНО-БАНАТСКИ ОКРУГ,Регион Војводине,"13",665 264,,dk.debeljaca@yahoo.de,http://www.dkdebeljaca.com/,Хорти Ласло,Хорти Ласло,Cultural Center,многофункциональные культурные центры,Дом культуры  „Йожеф Атила” Дебеляча,多功能文化中心,德贝利亚查“约热夫·阿提拉”文化之家,,45.0688488,20.5997608,"45.0688488, 20.5997608","013",POINT(468492.8302832416 4990676.584264881)
"21708",Дом културе „Кочо Рацин” Јабука,"Cultural center ""Kočo Racin""",Поливалентни центри за културу,,Иве Лоле Рибара 2,Панчево,Панчево,ЈУЖНО-БАНАТСКИ ОКРУГ,Регион Војводине,"13",2624 067,,dkjabuka@madnet.rs,https://sr-rs.facebook.com/Dom-Kulture-Ko%C4%8Do-Racin-1206942835999349/,в.д. директора Ивана Величковски,Ивана Величковски,Cultural Center,многофункциональные культурные центры,Дом культуры  „Кочо Рацин” Ябука,多功能文化中心,亚布卡“科朝·拉钦“文化之家,,44.9460773,20.5924515,"44.9460773, 20.5924515","013",POINT(467848.8290287336 4977041.079992479)
"21846",Дом културе „Радомир Поповић” Косовска Каменица,"Cultural Center ""Radomir Popović"" Kosovska Kamenica",Поливалентни центри за културу,,Цара Лазара 95,Косовска Каменица,Косовска Каменица,КОСОВСКО-ПОМОРАВСКИ ОКРУГ,Регион Косовo и Метохијa,"280",71 928,,,,,,Cultural Center,многофункциональные культурные центры,Дом культуры  „Радомир Попович” Косовска-Каменица,多功能文化中心,科索沃卡梅尼查“拉多米尔·波波维奇”文化之家,,42.5813048,21.5774057,"42.5813048, 21.5774057","0280",POINT(547381.7487208227 4714482.660895681)
"21729",Дом културе „Милосав Буца Мирковић” Александровац,Cultural Center Aleksandrovac,Поливалентни центри за културу,,10. август бб,Александровац,Александровац,РАСИНСКИ ОКРУГ,Регион Шумадије и Западне Србије,"37",3552 071,063 8033 751,domkulturealeksandrovac@yahoo.com,https://sr-rs.facebook.com/domkulturealeksandrovac/,Зоран Андрејић,Ђорђевић Снежана,Cultural Center,многофункциональные культурные центры,Дом культуры  „Милосав Буца Миркович” Александровац,多功能文化中心,阿莱克桑德洛瓦茨“米洛斯拉夫·布查·米尔科维奇”文化之家,,43.4598416,21.0457643,"43.4598416, 21.0457643","037",POINT(503702.2353001108 4811882.50053949)
"21851",Дом културе „Миодраг Вучковић” Здравиње,"Cultural Center ""Miodrag Vučković"" Zdravinje",Поливалентни центри за културу,,село Здравиње ,Крушевац,Крушевац,РАСИНСКИ ОКРУГ,Регион Шумадије и Западне Србије,"37","691 102; 691 218",,gisazdravinje@gmail.com,,Драгиша Ђурђевић 063 1843 970,Драгиша Ђурђевић,Cultural Center,многофункциональные культурные центры,Дом культуры  „Миодраг Вучкович” Здравине,多功能文化中心,兹德拉维涅“米尔德拉格·武契科维奇”文化之家,,43.5419379,21.4586328,"43.5419379, 21.4586328","037",POINT(537052.2080194026 4821101.098748911)
"21795",Дом културе „Мита Живков Лала” Црепаја,"Cultural Center ""Mita Živkov Lala"" Crepaja",Поливалентни центри за културу,,Трг ослобођења 9,Ковачица,Ковачица,ЈУЖНО-БАНАТСКИ ОКРУГ,Регион Војводине,"13",,,,http://domkulturecrepaja.co.nf/,Јасмина Манојловић,,Cultural Center,многофункциональные культурные центры,Дом культуры  „Мита Живков Лала” Црепая,多功能文化中心,茨莱帕亚“米塔·日夫科夫·拉拉”文化之家,,45.0080949,20.6343046,"45.0080949, 20.6343046","013",POINT(471181.6671162813 4983914.68232642)
"21797",Дом културе „Михаил Бабинка” Падина,"Cultural Center ""Mihail Babinka"" Padina",Поливалентни центри за културу,,Трг ослобођења 1,Ковачица,Ковачица,ЈУЖНО-БАНАТСКИ ОКРУГ,Регион Војводине,"13",667 235,,,www.padina.co.rs,Ана Сладечек,Андрија Томек,Cultural Center,многофункциональные культурные центры,Дом культуры  „Михаил Бабинка” Падина,多功能文化中心,帕迪娜“米哈伊尔·巴宾卡”文化之家,,45.11779,20.7228777,"45.11779, 20.7228777","013",POINT(478203.3218535774 4996072.861397229)
"22682",Дом културе „Михајло Пупин”,"Cultural Center""Mihajlo Pupin""",Поливалентни центри за културу,,Иве Лоле Рибара 47,Ковачица,Ковачица,ЈУЖНО-БАНАТСКИ ОКРУГ,Регион Војводине,"13",676 240,062 256 341,domkultureidvor@gmail.com,www.muzejpupina.rs,Светислав Закић,Светислав Закић,Cultural Center,многофункциональные культурные центры,Дом культуры  „Михайло Пупин”,多功能文化中心,“米哈伊尔·普平”文化之家,,45.1595083,20.6110918,"45.1595083, 20.6110918","013",POINT(469433.25200564455 5000743.558377493)
"21793",Дом културе „Младост” Алибунар,"Cultural Center ""Mladost"" Alibunar",Поливалентни центри за културу,,Трг слободе 7,Алибунар,Алибунар,ЈУЖНО-БАНАТСКИ ОКРУГ,Регион Војводине,"13",641 039,,,,Перица Битевић,,Cultural Center,многофункциональные культурные центры,Дом культуры  „Молодость” Алибунар,多功能文化中心,阿利布纳尔“青年”文化之家,,45.0797092,20.9633474,"45.0797092, 20.9633474","013",POINT(497115.2226284652 4991805.797426065)
"21877",Дом културе „Младост” Глогоњ,"Cultural Center ""Mladost"" Glogonj",Поливалентни центри за културу,,1. мај 1982,Панчево,Панчево,ЈУЖНО-БАНАТСКИ ОКРУГ,Регион Војводине,"13",627 115,,slavko.jovanovski@yahoo.com,,Славко Јовановски,Славко Јовановски,Cultural Center,многофункциональные культурные центры,Дом культуры  „Молодость” Глогонь,多功能文化中心,格洛格尼“青年”文化之家,,44.9854247,20.5266695,"44.9854247, 20.5266695","013",POINT(462684.85844593187 4981440.233557658)
"21668",Дом културе „Пиво Караматијевић” Прибој,"Cultural Center  ""Pivo Karamatijević"" Priboj",Поливалентни центри за културу,,12. јануара 86,Прибој,Прибој,ЗЛАТИБОРСКИ ОКРУГ,Регион Шумадије и Западне Србије,"33",2454 802,,dkulturepb@gmail.com,https://sr-rs.facebook.com/Dom-kulture-Pivo-Karamatijevi%C4%87-Priboj-121047204706892/,Борка Пузовић,"Борка Пузовић, Мирослав Вуковић, Ибрахим Ћата Хасанагић",Cultural Center,многофункциональные культурные центры,Дом культуры  „Пиво Караматиевич” Прибой,多功能文化中心,普利波伊“皮沃·卡拉玛提耶维奇”文化之家,,43.5831265,19.5231155,"43.5831265, 19.5231155","033",POINT(380765.5202897003 4826632.862746576)
"21752",Дом културе „Радан” Лебане,"Cultural Center ""Radan"" Lebane",Поливалентни центри за културу,,Цара Душана 79,Лебане,Лебане,ЈАБЛАНИЧКИ ОКРУГ,Регион Јужне и Источне Србије,"16",843 920,,domkultureradan@gmail.com,,в.д Марко Тодоровић,Љубинка Стојановић,Cultural Center,многофункциональные культурные центры,Дом культуры  „Радан” Лебане,多功能文化中心,莱巴内“拉丹”文化之家,,42.9175909,21.7356253,"42.9175909, 21.7356253","016",POINT(560039.7976960939 4751925.934897599)
"21812",Дом културе „Радивој Увалић Бата” Прокупље,"Cultural Center  ""Radivoj Uvalić Bata"" Prokuplje",Поливалентни центри за културу,,Косте Војиновића 1,Прокупље,Прокупље,ТОПЛИЧКИ ОКРУГ,Регион Јужне и Источне Србије,"27","321 002; 321 086",060 7117 355,domkulturepk@gmail.com,domkulturepk.com,Tијана Петровић,Предраг Славковић,Cultural Center,многофункциональные культурные центры,Дом культуры  „Радивой Увалич Бата” Прокупле,多功能文化中心,普罗库普列“拉迪沃伊·乌瓦利奇·巴塔“文化之家,,43.2313898,21.5809349,"43.2313898, 21.5809349","027",POINT(547173.0271093372 4786674.568440474)
"21829",Дом културе „Свети Сава” Штрпце,"Cultural Center ""Sveti Sava"" Štrpce",Поливалентни центри за културу,,Штрпце бб,Урошевац,Урошевац,КОСОВСКИ ОКРУГ,Регион Косовo и Метохијa,"290",70 207,,,,,,Cultural Center,многофункциональные культурные центры,Дом культуры  „Святой Савва” Штрпце,多功能文化中心,什特尔普策“圣萨瓦”文化之家,,42.240785,21.025908,"42.240785, 21.025908","0290",POINT(502137.5310533508 4676511.195232081)
"21787",Дом културе „Стеван Мокрањац” Неготин,"Cultural Center ""Stevan Mokranjac"" Negotin",Поливалентни центри за културу,,Трг Ђорђа Станојевића 5,Неготин,Неготин,БОРСКИ ОКРУГ,Регион Јужне и Источне Србије,"19",543 676,063 8711 651,dkmokranjac@gmail.com,www.domkulture-negotin.rs,Милан Радосављевић,Милан Радосављевић,Cultural Center,многофункциональные культурные центры,Дом культуры  „Стеван Мокраняц” Неготин,多功能文化中心,内戈廷“斯太凡·莫克拉尼亚茨”文化之家,,44.2280968,22.5278471,"44.2280968, 22.5278471","019",POINT(622023.9365340105 4898342.514413388)
"21672",Дом културе „Студеница” Ушће,"Cultural Center ""Studenica"" Kraljevo",Поливалентни центри за културу,,23. новембра 12,Краљево,Краљево,РАШКИ ОКРУГ,Регион Шумадије и Западне Србије,"36","530 056, 5430 056",,domusce@open.telekom.rs,https://b-m.facebook.com/Dom-Kulture-Studenica-Usce-1527813940837701/,Станиша Веселиновић,Станиша Веселиновић,Cultural Center,многофункциональные культурные центры,Дом культуры  „Студеница” Ушче,多功能文化中心,乌什切“斯图丹尼查”文化中心,,43.455755,20.61446,"43.455755, 20.61446","036",POINT(468808.51407525723 4811499.8167367745)
"21913",Дом културе „Тихомир Ракић - Вељко” Печењевце,"Cultural Center ""Tihomir Rakic - Veljko"" Pecenjevce",Поливалентни центри за културу,,Маршала Тита бб,Лесковац,Лесковац,ЈАБЛАНИЧКИ ОКРУГ,Регион Јужне и Источне Србије,"16",791 003,,dkpecenjevce@yahoo.com,https://www.facebook.com/domkulture.pecenjevce,Дејан Марковић,Дејан Марковић,Cultural Center,многофункциональные культурные центры,Дом культуры  „Тихомир Ракич - Велько” Печеневце,多功能文化中心,佩切涅夫策“提霍米尔·拉基奇-韦利科”文化之家,,43.1013315,21.9240761,"43.1013315, 21.9240761","016",POINT(575196.2503789552 4772481.945454649)
"21711",Дом културе Бабушница,Cultural Center Babušnica,Поливалентни центри за културу,,Саше Ивковића 1,Бабушница,Бабушница,ПИРОТСКИ ОКРУГ,Регион Јужне и Источне Србије,"10",385 154,,domkulturebabusnica@yahoo.com,,Валентина Николић Радивојев,Валентина Николић Радивојев,Cultural Center,многофункциональные культурные центры,Дом культуры  Бабушница,多功能文化中心,巴布什尼查文化之家,,43.0659472,22.4100936,"43.0659472, 22.4100936","010",POINT(614812.2127707361 4769102.986116462)
"21875",Дом културе Баваниште,House of culture Bavaniste,Поливалентни центри за културу,,Трг Зорана Ђурђева 4,Ковин,Ковин,ЈУЖНО-БАНАТСКИ ОКРУГ,Регион Војводине,"13","752 244; 063 20 42 98-директор",,,https://sr-rs.facebook.com/domkulture.babusnica/,Сава Тодоров,Слободан Стојанов,Cultural Center,многофункциональные культурные центры,Дом культуры  Баваниште,多功能文化中心,巴巴尼什特文化之家,,44.8186166,20.8737576,"44.8186166, 20.8737576","013",POINT(490018.8252370564 4962809.0755988415)
"21703",Дом културе Бачка Топола,Cultural Center Bačka Topola,Поливалентни центри за културу,,Главна 12,Бачка Топола,Бачка Топола,СЕВЕРНО-БАЧКИ ОКРУГ,Регион Војводине,"24",713 515,063 1087 713,kultura@stcable.net,http://www.domkulturebt.org/sr/,Тимеа Чипе,Татјана Дудаш,Cultural Center,многофункциональные культурные центры,Дом культуры  Бачка Топола,多功能文化中心,巴池托珀拉文化之家,,45.8130012,19.6284979,"45.8130012, 19.6284979","024",POINT(393444.506210348 5074185.564279366)
"21853",Дом културе Бешка,Cultural Center Beška,Поливалентни центри за културу,,Карађорђева 1,Инђија,Инђија,СРЕМСКИ ОКРУГ,Регион Војводине,"22",571 035,,,,председник савета дома културе Крнета Бранко,Ненад Вукмановић,Cultural Center,многофункциональные культурные центры,Дом культуры  Бешка,多功能文化中心,贝什卡文化之家,,45.1293595,20.0655123,"45.1293595, 20.0655123","022",POINT(426514.0023267185 4997745.489818075)
"21848",Дом културе Партеш,Cultural Center Parteš,Поливалентни центри за културу,,село Партеш ,Гњилане,Гњилане,КОСОВСКО-ПОМОРАВСКИ ОКРУГ,Регион Косовo и Метохијa,"280",28 033,,,,,,Cultural Center,многофункциональные культурные центры,Дом культуры  Партеш,多功能文化中心,帕尔特什文化之家,,42.401311,21.433179,"42.401311, 21.433179","0280",POINT(535648.5932911559 4694425.760556411)
"21910",Дом културе Брестовац,Cultural Center Brestovac,Поливалентни центри за културу,,Булевар ослобођења бб,Лесковац,Лесковац,ЈАБЛАНИЧКИ ОКРУГ,Регион Јужне и Источне Србије,"16",782 214,,domkulturebrestovac@gmail.com,https://sr-rs.facebook.com/DKBrestovac/,Ивана Стојковић,Ивана Стојковић,Cultural Center,многофункциональные культурные центры,Дом культуры  Брестовац,多功能文化中心,布莱斯托瓦茨文化之家,,43.153093,21.87783,"43.153093, 21.87783","016",POINT(571372.7655153997 4778189.707819973)
"21843",Дом културе Витина,Cultural Center Vitina,Поливалентни центри за културу,, ,Витина,Витина,КОСОВСКО-ПОМОРАВСКИ ОКРУГ,Регион Косовo и Метохијa,"280",81 629,,,,,,Cultural Center,многофункциональные культурные центры,Дом культуры  Витина,多功能文化中心,维提纳文化之家,,42.322168,21.35898,"42.322168, 21.35898","0280",POINT(529579.455983677 4685609.566991533)
"21873",Дом културе Владимировац,Cultural Center Vladimirovac,Поливалентни центри за културу,,Бранка Савића 47,Алибунар,Алибунар,ЈУЖНО-БАНАТСКИ ОКРУГ,Регион Војводине,"13",643 470,,,,Стојан Ђорђе - 062/215 221,Стојан Ђорђе,Cultural Center,многофункциональные культурные центры,Дом культуры  Владимировац,多功能文化中心,弗拉迪米洛瓦茨文化之家,,45.0310034,20.8618355,"45.0310034, 20.8618355","013",POINT(489116.3982147959 4986403.778412947)
"21838",Дом културе Вучитрн,"Cultural Center ""Priružje"" Vučitrn",Поливалентни центри за културу,, ,Вучитрн,Вучитрн,КОСОВСКО-МИТРОВАЧКИ ОКРУГ,Регион Косовo и Метохијa,"38",67 048,,,,,,Cultural Center,многофункциональные культурные центры,Дом культуры  Вучитрн,多功能文化中心,乌契特伦文化之家,,42.826879,20.970313,"42.826879, 20.970313","038",POINT(497573.47926041705 4741590.722634685)
"21819",Дом културе Глоговац,Library - Cultural Center Glogovac,Поливалентни центри за културу,,село Глоговац ,Јагодина,Јагодина,ПОМОРАВСКИ ОКРУГ,Регион Шумадије и Западне Србије,"35",84 140,,,,,,Cultural Center,многофункциональные культурные центры,Дом культуры  Глоговац,多功能文化中心,格洛高瓦茨文化之家,,44.0417978,21.3083106,"44.0417978, 21.3083106","035",POINT(524701.1725708048 4876561.448736486)
"21827",Дом културе Грачаница,Cultural Center Gračanica,Поливалентни центри за културу,,село Грачаница ,Приштина,Приштина,КОСОВСКИ ОКРУГ,Регион Косовo и Метохијa,"38",64 295,,,https://www.facebook.com/pg/domkulturegracanica/reviews/,,,Cultural Center,многофункциональные культурные центры,Дом культуры  Грачаница,多功能文化中心,格拉恰尼查文化之家,,42.6032793,21.1860703,"42.6032793, 21.1860703","038",POINT(515263.49337452976 4716777.946182687)
"21893",Дом културе Грделица,Cultural Centre Grdelica,Поливалентни центри за културу,,29. Новембар 1,Гаџин хан,Гаџин хан,НИШАВСКИ ОКРУГ,Регион Јужне и Источне Србије,"18",831 117,,,https://sr-rs.facebook.com/Dom-kulture-Grdelica-719077394868628/,Ивана Несиц,Ивана Несиц,Cultural Center,многофункциональные культурные центры,Дом культуры  Грделица,多功能文化中心,格尔德利查文化之家,,42.8924849,22.0692758,"42.8924849, 22.0692758","018",POINT(587307.0961665825 4749430.064131031)
"21895",Дом културе Грејач,Cultural Centre Grejac,Поливалентни центри за културу,,Грејач бб,Алексинац,Алексинац,НИШАВСКИ ОКРУГ,Регион Јужне и Источне Србије,"18",881 003,,,,,,Cultural Center,многофункциональные культурные центры,Дом культуры  Греяч,多功能文化中心,格雷亚池文化之家,,43.419442,21.739621,"43.419442, 21.739621","018",POINT(559873.6960343125 4807660.458021627)
"21834",Дом културе Драгаш,Cultural Center Dragaš,Поливалентни центри за културу,, ,Драгаш,Драгаш,ПРИЗРЕНСКИ ОКРУГ,Регион Косовo и Метохијa,"29","81 644; 81 646",,,,,,Cultural Center,многофункциональные культурные центры,Дом культуры  Драгаш,多功能文化中心,德拉加什文化之家,,42.061237,20.651084,"42.061237, 20.651084","029",POINT(471131.3098515108 4656634.222789281)
"21839",Дом културе Зубин Поток,Cultural Center Zubin Potok,Поливалентни центри за културу,,Колашинских кнежева 52,Косовска Митровица,Косовска Митровица,КОСОВСКО-МИТРОВАЧКИ ОКРУГ,Регион Косовo и Метохијa,"28",461 131,/,domkulturezp@gmail.com,/,Андријана Живановић,Андријана Живановић,Cultural Center,многофункциональные культурные центры,,多功能文化中心,,,42.915297,20.689745,"42.915297, 20.689745","028",POINT(474676.9081832088 4751455.427033533)
"21675",Дом културе Ивањица,Cultural Center Ivanjica,Поливалентни центри за културу,,Венијамина Маринковића бб,Ивањица,Ивањица,МОРАВИЧКИ ОКРУГ,Регион Шумадије и Западне Србије,"32",661 087,,domkultureivanjica@open.telekom.rs,http://domkultureivanjica.rs/,Милан Крунић,Рашко Нешовановић,Cultural Center,многофункциональные культурные центры,Дом культуры  Иваница,多功能文化中心,伊瓦尼查文化之家,,43.5781432,20.2291526,"43.5781432, 20.2291526","032",POINT(437761.6928457642 4825308.488961639)
"21831",Дом културе Исток,Cultural Center Istok,Поливалентни центри за културу,, ,Исток,Исток,ПЕЋКИ ОКРУГ,Регион Косовo и Метохијa,"290",51 122,,,,,,Cultural Center,многофункциональные культурные центры,Дом культуры  Исток,多功能文化中心,东方文化之家,,42.782509,20.491103,"42.782509, 20.491103","0290",POINT(458374.6022084267 4736788.810714744)
"21718",Дом културе Јаша Томић,Cultural Center Jasa Tomic,Поливалентни центри за културу,,Маршала Тита 78,Сечањ,Сечањ,СРЕДЊЕ-БАНАТСКИ ОКРУГ,Регион Војводине,"23",848 550,,,,,,Cultural Center,многофункциональные культурные центры,Дом культуры  Яша Томич,多功能文化中心,亚沙·托米奇文化之家,,45.4484099,20.8577024,"45.4484099, 20.8577024","023",POINT(488872.5956904606 5032774.867172349)
"21717",Дом културе Каоник,Cultural Center Kaonik,Поливалентни центри за културу,,Каоник бб,Крушевац,Крушевац,РАСИНСКИ ОКРУГ,Регион Шумадије и Западне Србије,"37","866 311;",,cara1509@ptt.rs - uslužni,,Мирољуб Милановић,,Cultural Center,многофункциональные культурные центры,Дом культуры  Каоник,多功能文化中心,卡奥尼克文化之家,,43.559412,21.497944,"43.559412, 21.497944","037",POINT(540216.4800662824 4823060.0229641115)
"21879",Дом културе Качарево,Cultural Center Kacarevo,Поливалентни центри за културу,,Маршала Тита 37,Панчево,Панчево,ЈУЖНО-БАНАТСКИ ОКРУГ,Регион Војводине,"13",602 050,,domkulturekacarevo@open.telekom.rs,https://sr-rs.facebook.com/Dom-kulture-Kacarevo-322677939462/,Маријан Мушкиња,Маријан Мушкиња,Cultural Center,многофункциональные культурные центры,Дом культуры  Качарево,多功能文化中心,卡查莱沃文化之家,,44.9667071,20.6961071,"44.9667071, 20.6961071","013",POINT(476034.7240545816 4979296.906188273)
"21832",Дом културе Клина,Cultural Center Klina,Поливалентни центри за културу,,Цара Душана бб,Клина,Клина,ПЕЋКИ ОКРУГ,Регион Косовo и Метохијa,"39","71 434; 71 241",,,,,,Cultural Center,многофункциональные культурные центры,Дом культуры  Клина,多功能文化中心,克利纳文化之家,,42.619515,20.578442,"42.619515, 20.578442","039",POINT(465428.2239782269 4718650.112492169)
"21782",Дом културе Књажевац,Cultural Center Knjaževac,Поливалентни центри за културу,,Бранка Радичевића 1,Књажевац,Књажевац,ЗАЈЕЧАРСКИ ОКРУГ,Регион Јужне и Источне Србије,"19",731 804,064 8992 732,dkknjaz@mts.rs,www.dkknjazevac.net,Драгана Јанковић,Ивица Бранковић,Cultural Center,многофункциональные культурные центры,Дом культуры  Княжевац,多功能文化中心,克尼亚热瓦茨文化之家,,43.5685983,22.2535437,"43.5685983, 22.2535437","019",POINT(601227.5083312239 4824723.094193474)
"21894",Дом културе Коњух,Cultural Center Konjuh,Поливалентни центри за културу,,Коњух бб,Крушевац,Крушевац,РАСИНСКИ ОКРУГ,Регион Шумадије и Западне Србије,"37",875 170,,,,,,Cultural Center,многофункциональные культурные центры,Дом культуры  Конюх,多功能文化中心,科纽赫文化之家,,43.6452529,21.1709819,"43.6452529, 21.1709819","037",POINT(513789.7360073387 4832487.290789633)
"21763",Дом културе Косјерић,Cultural Center Kosjerić,Поливалентни центри за културу,,Олге Грбић 5,Косјерић,Косјерић,ЗЛАТИБОРСКИ ОКРУГ,Регион Шумадије и Западне Србије,"31",,,,,Винка Марић,,Cultural Center,многофункциональные культурные центры,Дом культуры  Косьерич,多功能文化中心,科谢里奇文化之家,,43.9968521,19.9059713,"43.9968521, 19.9059713","031",POINT(412282.3886437998 4872104.960646342)
"21822",Дом културе Косово Поље,Cultural Center Kosovo Polje,Поливалентни центри за културу,,Лењинова 157,Косово Поље,Косово Поље,КОСОВСКИ ОКРУГ,Регион Косовo и Метохијa,"38",66 405,,,,,,Cultural Center,многофункциональные культурные центры,Дом культуры  Косово Поле,多功能文化中心,科索沃珀列文化之家,,42.639065,21.095524,"42.639065, 21.095524","038",POINT(507831.4220725899 4720739.268516572)
"21823",Дом културе Липљан,Cultural Center Lipljan,Поливалентни центри за културу,,В. Дејановића бб,Липљан,Липљан,КОСОВСКИ ОКРУГ,Регион Косовo и Метохијa,"290",81 073,,,,,,Cultural Center,многофункциональные культурные центры,Дом культуры  Липлян,多功能文化中心,利普利扬文化之家,,42.526973,21.122665,"42.526973, 21.122665","0290",POINT(510074.5762018848 4708295.419735716)
"21897",Дом културе Локве,Cultural Center Lokve,Поливалентни центри за културу,,Трг ослобођења бб,Алибунар,Алибунар,ЈУЖНО-БАНАТСКИ ОКРУГ,Регион Војводине,"13",646 320,,dklokve@3dnet.rs,,Јонел Сфера- 063 8120 135,Јонел Сфера,Cultural Center,многофункциональные культурные центры,Дом культуры  Локве,多功能文化中心,洛克维文化之家,,45.134049,21.023927,"45.134049, 21.023927","013",POINT(501881.41117890587 4997841.998956908)
"22465",Дом културе Мали Зворник,Cultural Center Zvornik,Поливалентни центри за културу,Библиотека „17. септембар” Мали Зворник,Краља Петра I 26,Мали Зворник,Мали Зворник,МАЧВАНСКИ ОКРУГ,Регион Шумадије и Западне Србије,"15",471 298,,biblmzvornik@yahoo.com,,Славојка Спасеновић,Светозар Слијепчевић,Cultural Center,многофункциональные культурные центры,Дом культуры  Мали Зворник,多功能文化中心,小兹沃尔尼克文化之家,,44.3755013,19.1062814,"44.3755013, 19.1062814","015",POINT(349132.9819606495 4915324.280947031)
"21892",Дом културе Мерошина,Cultural Center Merosina,Поливалентни центри за културу,,Мерошина бб,Мерошина,Мерошина,НИШАВСКИ ОКРУГ,Регион Јужне и Источне Србије,"18",892 022,,,,Сања Миладиновић,,Cultural Center,многофункциональные культурные центры,Дом культуры  Мерошина,多功能文化中心,梅洛西那文化之家,,43.283603,21.721374,"43.283603, 21.721374","018",POINT(558526.9544083313 4792561.821607631)
"21694",Дом културе Нови Бечеј,Cultural Center Novi Becej,Поливалентни центри за културу,,Трг ослобођења бб,Нови Бечеј,Нови Бечеј,СРЕДЊЕ-БАНАТСКИ ОКРУГ,Регион Војводине,"23",771 330,,domkulturenb@open.telekom.rs,http://www.domkulturenb.com/sr/,Маријана Барачков,Маријана Барачков,Cultural Center,многофункциональные культурные центры,Дом культуры  Нови Бечей,多功能文化中心,贝切伊文化之家,,45.5940862,20.1301775,"45.5940862, 20.1301775","023",POINT(432156.8755603993 5049317.204617811)
"21824",Дом културе Обилић,Cultural Center Obilić,Поливалентни центри за културу,, ,Приштина,Приштина,КОСОВСКИ ОКРУГ,Регион Косовo и Метохијa,"38",61 720,,,,,,Cultural Center,многофункциональные культурные центры,Дом культуры  Обилич,多功能文化中心,奥比里奇文化之家,,42.686685,21.06697,"42.686685, 21.06697","038",POINT(505486.2675542621 4726024.827723344)
"21814",Дом културе Пирот,Cultural Center Pirot,Поливалентни центри за културу,,Српских владара 77,Пирот,Пирот,ПИРОТСКИ ОКРУГ,Регион Јужне и Источне Србије,"10",321 666,,,www.dkpirot.com,Мишко Ћирић,Мишко Ћирић,Cultural Center,многофункциональные культурные центры,Дом культуры  Пирот,多功能文化中心,皮洛特文化之家,,43.1558213,22.5838297,"43.1558213, 22.5838297","010",POINT(628769.734410536 4779336.235812613)
"21836",Дом културе Призрен,Cultural Center Prizren,Поливалентни центри за културу,,Трг Цара Душана бб,Призрен,Призрен,ПРИЗРЕНСКИ ОКРУГ,Регион Косовo и Метохијa,"29","43 390; 22 553; 31 636",,,,,,Cultural Center,многофункциональные культурные центры,Дом культуры  Призрен,多功能文化中心,普里兹伦文化之家,,42.212315,20.741244,"42.212315, 20.741244","029",POINT(478641.81942891557 4673382.157365974)
"21862",Дом културе Пријепоље,Cultural Centre Prijepolje,Поливалентни центри за културу,,Санџачких бригада 2,Пријепоље,Пријепоље,ЗЛАТИБОРСКИ ОКРУГ,Регион Шумадије и Западне Србије,"33",711 566,,domkulturepp@gmail.com,http://www.domkulturepp.rs/,v.d.direktora Mirko Antonije Malešić,Admira Mostarac,Cultural Center,многофункциональные культурные центры,Дом культуры  Приеполе,多功能文化中心,普利耶珀列文化之家,,43.3911904,19.6460002,"43.3911904, 19.6460002","033",POINT(390339.8302032145 4805147.536928691)
"21867",Дом културе Прњавор,Cultural Center Prnjavor,Поливалентни центри за културу,,Карађорђева 2,Шабац,Шабац,МАЧВАНСКИ ОКРУГ,Регион Шумадије и Западне Србије,"15",283 312,,,https://sr-rs.facebook.com/fa.domkultureprnjavor/,Зоран Калабић,Данијела Петровић,Cultural Center,многофункциональные культурные центры,Дом культуры  Прнявор,多功能文化中心,普勒尼亚沃尔文化之家,,44.6989701,19.3859647,"44.6989701, 19.3859647","015",POINT(372124.77970584 4950777.735862762)
"21759",Дом културе Ражањ,Cultural Center Ražanj,Поливалентни центри за културу,,Партизанска 82,Ражањ,Ражањ,НИШАВСКИ ОКРУГ,Регион Јужне и Источне Србије,"37",841 209,,,,Витомир Добросављевиц,Витомир Добросављевиц,Cultural Center,многофункциональные культурные центры,Дом культуры  Ражань,多功能文化中心,拉扎尼文化之家,,43.6789016,21.5448949,"43.6789016, 21.5448949","037",POINT(543921.4109454271 4836354.392823011)
"21896",Дом културе Рибница,Culture centre Ribnica,Поливалентни центри за културу,,Излетничка 2,Краљево,Краљево,РАШКИ ОКРУГ,Регион Шумадије и Западне Србије,"36",375 757,,kckraljevo@open.telekom.rs,http://www.kcribnica.rs/,Ана Јеротијевић Јакић,Ана Јеротијевић Јакић,Cultural Center,многофункциональные культурные центры,Дом культуры  Рибница,多功能文化中心,利布尼查文化之家,,43.7110486,20.690217,"43.7110486, 20.690217","036",POINT(475043.1994283174 4839827.081581548)
"23702",Дом културе Рипањ,Culture centre Ripanj,Поливалентни центри за културу,,Ерчанска 2,БЕОГРАД - Вождовац,БЕОГРАД - Вождовац,ГРАД БЕОГРАД,Београдски регион,"11",064 377 2673,,d.k.ripanj@gmail.com,,,,Cultural Center,многофункциональные культурные центры,Дом культуры  Рипань,多功能文化中心,利帕尼文化之家,,44.6393924,20.5184912,"44.6393924, 20.5184912","011",POINT(461812.44420551346 4943005.485797395)
"21912",Дом културе Рома Лесковац,Romani Cultural center Leskovac ,Поливалентни центри за културу,,З.Буљубаше бб,Лесковац,Лесковац,ЈАБЛАНИЧКИ ОКРУГ,Регион Јужне и Источне Србије,"16",212 264,,,,Рама Јашаревић,Снежа Стојчевска,Cultural Center,многофункциональные культурные центры,Дом культуры рома Лесковац,多功能文化中心,莱斯科瓦茨罗马文化之家,,42.9886676,21.9496129,"42.9886676, 21.9496129","016",POINT(577415.8603628796 4759993.811061491)
"21678",Дом културе Руски Крстур,Cultural Center Ruski Krstur,Поливалентни центри за културу,,Русинска 75,Кула,Кула,ЗАПАДНО-БАЧКИ ОКРУГ,Регион Војводине,"25","703 357; 703 032",,kerestur@open.telekom.rs,https://sr-rs.facebook.com/DomkultureRuskiKrstur/,Рац Јоаким,,Cultural Center,многофункциональные культурные центры,Дом культуры  Руски-Крстур,多功能文化中心,罗斯库尔斯图尔文化之家,,45.5600843,19.4163697,"45.5600843, 19.4163697","025",POINT(376407.9782450763 5046391.382389193)
"21858",Дом културе Селенча,Cultural Center Selenča,Поливалентни центри за културу,,Маршала Тита 124,Бач,Бач,ЈУЖНО-БАЧКИ ОКРУГ,Регион Војводине,"21",774 114,,mz_selenca@abakusbp.net,,Јурај Петник,,Cultural Center,многофункциональные культурные центры,Дом культуры  Селенча,多功能文化中心,塞棱查文化之家,,45.4117111,19.3031609,"45.4117111, 19.3031609","021",POINT(367224.60847129615 5030088.341547815)
"21874",Дом културе Селеуш,Cultural Center Seleus,Поливалентни центри за културу,,Бранка Радичевића 1,Алибунар,Алибунар,ЈУЖНО-БАНАТСКИ ОКРУГ,Регион Војводине,"13","649 114; 649 101",,,,,Магда Јон,Cultural Center,многофункциональные культурные центры,Дом культуры  Селеуш,多功能文化中心,塞莱乌什文化之家,,45.132913,20.914875,"45.132913, 20.914875","013",POINT(493306.37748039997 4997719.046525766)
"21799",Дом културе Сивац,Cultural Center Sivac,Поливалентни центри за културу,,Маршала Тита 195,Кула,Кула,ЗАПАДНО-БАЧКИ ОКРУГ,Регион Војводине,"25",711 055,061 1460 656,domkulture.sivac@gmail.com,www.domkulture-sivac.net,Горан Јањуш,Горан Јањуш,Cultural Center,многофункциональные культурные центры,Дом культуры  Сивац,多功能文化中心,西瓦茨文化之家,,45.7014193,19.379292,"45.7014193, 19.379292","025",POINT(373831.912403474 5062151.309192213)
"21842",Дом културе Србица,Cultural Center Srbica,Поливалентни центри за културу,, ,Србица,Србица,КОСОВСКО-МИТРОВАЧКИ ОКРУГ,Регион Косовo и Метохијa,"29",82 219,,,,,,Cultural Center,многофункциональные культурные центры,Дом культуры  Србица,多功能文化中心,塞尔比查文化之家,,42.756993,20.788123,"42.756993, 20.788123","029",POINT(482662.35091047076 4733851.620136648)
"21734",Дом културе Србобран,Cultural Center Srbobran,Поливалентни центри за културу,,Цара Лазара 6,Србобран,Србобран,ЈУЖНО-БАЧКИ ОКРУГ,Регион Војводине,"21",731 919,,dk-srbobran@stcable.rs,https://dk-srbobran.rs/,в.д. директора Елизабета Мавренски,Елизабета Мавренски,Cultural Center,многофункциональные культурные центры,Дом культуры  Србобран,多功能文化中心,塞尔博布兰文化之家,,45.5481804,19.7918148,"45.5481804, 19.7918148","021",POINT(405689.01800160354 5044559.094576499)
"21883",Дом културе Станишић,Cultural Center  Stanisic,Поливалентни центри за културу,,Ослобођења 92,Сомбор,Сомбор,ЗАПАДНО-БАЧКИ ОКРУГ,Регион Војводине,"25",831 505,,mzstanisic@neobee.net,,Драгана Ђапић,Драгана Ђапић,Cultural Center,многофункциональные культурные центры,Дом культуры  Станишич,多功能文化中心,斯塔尼西奇文化之家,,45.939606,19.1605906,"45.939606, 19.1605906","025",POINT(357416.1606061828 5088982.323161552)
"21740",Дом културе Старчево,Cultural Center Starčevo,Поливалентни центри за културу,,Панчевачки пут 2,Панчево,Панчево,ЈУЖНО-БАНАТСКИ ОКРУГ,Регион Војводине,"13","631 128; 064 6130 007",,"dkstarcevo@yahoo.com;",https://sr-rs.facebook.com/Dom-kulture-29-novembar-Star%C4%8Devo-1792980770942344/,Видомир Јелесијевић,Видомир Јелесијевић,Cultural Center,многофункциональные культурные центры,Дом культуры  Старчево,多功能文化中心,斯塔尔切沃文化之家,,44.8078467,20.7007415,"44.8078467, 20.7007415","013",POINT(476335.15001140547 4961648.518337873)
"21665",Дом културе Студентски град,`Students’ City` Cultural Center,Поливалентни центри за културу,,Булевар Зорана Ђинђића 179,БЕОГРАД - Нови Београд,БЕОГРАД - Нови Београд,ГРАД БЕОГРАД,Београдски регион,"11","2691442","+381637260445",office@dksg.rs,www.dksg.rs,"др Невена Томић, заменица в.д. директора",Марина Лучић,Cultural Center,многофункциональные культурные центры,Дом культуры  Студенческий городок,多功能文化中心,大学生城文化之家,,44.8251378,20.3980163,"44.8251378, 20.3980163","011",POINT(452410.3784174166 4963701.966280101)
"21837",Дом културе Сува Река,Cultural Center Suva Reka,Поливалентни центри за културу,, ,Сува Река,Сува Река,ПРИЗРЕНСКИ ОКРУГ,Регион Косовo и Метохијa,"29",71 349,,,,,,Cultural Center,многофункциональные культурные центры,Дом культуры  Сува Река,多功能文化中心,苏瓦莱卡文化之家,,42.36343,20.831833,"42.36343, 20.831833","029",POINT(486152.33586791 4690142.417354604)
"21857",Дом културе Трговиште,Cultural Center Trgovište,Поливалентни центри за културу,,Краља Петра I 1,Трговиште,Трговиште,ПЧИЊСКИ ОКРУГ,Регион Јужне и Источне Србије,"17",452 336,,,,Слађан Станојев,Гордана Велиновић,Cultural Center,многофункциональные культурные центры,Дом культуры  Трговиште,多功能文化中心,特尔格维什泰文化之家,,42.3648767,22.0702696,"42.3648767, 22.0702696","017",POINT(588129.4949954672 4690844.050829483)
"21828",Дом културе Урошевац,Cultural Center Uroševac,Поливалентни центри за културу,,Цара Уроша 1,Урошевац,Урошевац,КОСОВСКИ ОКРУГ,Регион Косовo и Метохијa,"290","27 519; 21 244",,,,,,Cultural Center,многофункциональные культурные центры,Дом культуры  Урошевац,多功能文化中心,乌洛舍瓦茨文化之家,,42.370371,21.148386,"42.370371, 21.148386","0290",POINT(512217.45786211453 4690910.086335351)
"21724",Дом културе Црвенка,Cultural Center Crvenka,Поливалентни центри за културу,,Маршала Тита 108,Кула,Кула,ЗАПАДНО-БАЧКИ ОКРУГ,Регион Војводине,"25",731 713,,pozoristestevansremac@yahoo.com,,Цвијета Мучалица,Драгиша Ђуричић,Cultural Center,многофункциональные культурные центры,Дом культуры  Црвенка,多功能文化中心,策尔文卡文化之家,,45.6578888,19.4551483,"45.6578888, 19.4551483","025",POINT(379643.787610527 5057198.300575311)
"21826",Дом културе Чаглавица,Cultural Center Čaglavica,Поливалентни центри за културу,,село Чаглавица ,Приштина,Приштина,КОСОВСКИ ОКРУГ,Регион Косовo и Метохијa,"38",44 133,,,,,,Cultural Center,многофункциональные культурные центры,Дом культуры  Чаглавица,多功能文化中心,查格拉维查文化之家,,42.619907,21.144241,"42.619907, 21.144241","038",POINT(511829.05529031216 4718617.603543401)
"21753",Дом културе Чачак,Cultural Center Čačak,Поливалентни центри за културу,,Трг устанка 2-6,Чачак,Чачак,МОРАВИЧКИ ОКРУГ,Регион Шумадије и Западне Србије,"32","225 073, 225 068","0648040240",dk@domkulturecacak.org,www.domkulturecacak.org,Драгојло Јеротијевић,"Гордана Ђаковић, заменица директора",Cultural Center,многофункциональные культурные центры,Дом культуры  Чачак,多功能文化中心,查查克文化之家,,43.8920641,20.3476985,"43.8920641, 20.3476985","032",POINT(447607.54567758035 4860091.526111113)
"21852",Дом културе Шимановци,Cultural Center Simanovac,Поливалентни центри за културу,,Трг Маршала Тита 11,Пећинци,Пећинци,СРЕМСКИ ОКРУГ,Регион Војводине,"22",80 214-месна заједница,,,,љубоје Антић,,Cultural Center,многофункциональные культурные центры,Дом культуры  Шимановци,多功能文化中心,西玛诺夫奇文化之家,,44.8745158,20.088804,"44.8745158, 20.088804","022",POINT(428027.2151155893 4969414.660539281)
"21902",Дом омладине „Синђелић” Ћуприја,Cultural centre Cuprija,Поливалентни центри за културу,,Карађорђева 19,Ћуприја,Ћуприја,ПОМОРАВСКИ ОКРУГ,Регион Шумадије и Западне Србије,"35",474 450,,,,,,Cultural Center,многофункциональные культурные центры,Дом молодежи „Синджелич” Чуприя,多功能文化中心,丘普里亚青年之家,,43.9356373,21.3682249,"43.9356373, 21.3682249","035",POINT(529554.0072608594 4864790.151822399)
"25254",Дом омладине Београда,Belgrade Youth Cultural Center,Поливалентни центри за културу,Дом омладине Београда,Македонска 22/4,БЕОГРАД - Стари град,БЕОГРАД - Стари град,ГРАД БЕОГРАД,Београдски регион,"11","3220127","0605102062",dobinfo@domomladine.org,www.domomladine.org,"Ненад Драговић, в.д.",Снежана Аџемовић,Cultural Center,многофункциональные культурные центры,Дом молодежи Белграда,多功能文化中心,贝尔格莱德青年之家,,44.815479,20.4607036,"44.815479, 20.4607036","011",POINT(457358.9844533176 4962594.234556222)
"21744",Дом омладине Велика Плана,Youth Cultural Center Velika Plana,Поливалентни центри за културу,,Косовска 17,Велика Плана,Велика Плана,ПОДУНАВСКИ ОКРУГ,Регион Јужне и Источне Србије,"26",522 024,,domomladinevp@open.telekom.rs,,Слађана Казаковиц,Слађана Казаковиц,Cultural Center,многофункциональные культурные центры,Дом молодежи Велика-Плана,多功能文化中心,大普拉那青年之家,,44.3316912,21.0684376,"44.3316912, 21.0684376","026",POINT(505456.263504229 4908716.402640953)
"21709",Дом омладине Вршац,Youth Centre Vrsac,Поливалентни центри за културу,,Дворска 28,Вршац,Вршац,ЈУЖНО-БАНАТСКИ ОКРУГ,Регион Војводине,"13","834 233; 838 833",,dovrsac@gmail.com,https://sr-rs.facebook.com/dom.vrsac/,в.д. директора Миленко Вуковић,"Миленко Вуковић , Татјана Јованов, Страхиња Стојановић",Cultural Center,многофункциональные культурные центры,Дом молодежи Вршац,多功能文化中心,弗尔沙茨青年之家,,45.1191717,21.2946063,"45.1191717, 21.2946063","013",POINT(523171.29916092334 4996231.215516662)
"21805",Дом омладине Крагујевац,Youth Cultural Center Kragujevac,Поливалентни центри за културу,,Бранка Радичевића 1,Крагујевац,Крагујевац,ШУМАДИЈСКИ ОКРУГ,Регион Шумадије и Западне Србије,"34","302 427; 302 428-директор",,vpaunovic@domomladine.com,www.domomladine.com,Дејан Дачовић,Миодраг Здравковић,Cultural Center,многофункциональные культурные центры,Дом молодежи Крагуевац,多功能文化中心,克拉古耶瓦茨青年之家,,44.0113594,20.9097236,"44.0113594, 20.9097236","034",POINT(492763.5508672595 4873138.4665874485)
"21900",Дом омладине Мали Иђош,Youth Cultural Center Mali Idjos,Поливалентни центри за културу,,Маршала Тита 26,Мали Иђош,Мали Иђош,СЕВЕРНО-БАЧКИ ОКРУГ,Регион Војводине,"24",731 338,,asraop_mi@yahoo.com,,,,Cultural Center,многофункциональные культурные центры,Дом молодежи Мали-Иджош,多功能文化中心,小伊焦什青年之家,,45.706312,19.667011,"45.706312, 19.667011","024",POINT(396239.0709248148 5062281.5958693605)
"21738",Дом омладине Панчево,Youth Cultural Center Pančevo,Поливалентни центри за културу,,Светог Саве 10,Панчево,Панчево,ЈУЖНО-БАНАТСКИ ОКРУГ,Регион Војводине,"13","311 314; 331 073",,info@domomladinepancevo.com,http://www.domomladinepancevo.rs/,Марија Јевђић,Марија Јевђић,Cultural Center,многофункциональные культурные центры,Дом молодежи Панчево,多功能文化中心,潘切沃青年之家,,44.8731381,20.6392188,"44.8731381, 20.6392188","013",POINT(471502.2435619864 4968921.111603799)
"21774",Друштво за културу „Каблови” Јагодина,"Society for Culture ""Kablovi"" - Jagodina",Поливалентни центри за културу,,Драгише Брашована 2,Јагодина,Јагодина,ПОМОРАВСКИ ОКРУГ,Регион Шумадије и Западне Србије,"35",221 002 лок. 334,,,,Оливер Јовановски,,Cultural Center,многофункциональные культурные центры,Общество культуры „Каблови” Ягодина,多功能文化中心,雅戈蒂那“卡布洛维”文化协会,,43.9798501,21.2601713,"43.9798501, 21.2601713","035",POINT(520866.0633930493 4869667.737145347)
"21682",Друштво за културу и туризам „Вукашин Вуле Јевтић” Рибаре,"Society for Culture and Education ""Vukasin Vule Jevtic"" Ribare",Поливалентни центри за културу,,село Рибаре ,Крушевац,Крушевац,РАСИНСКИ ОКРУГ,Регион Шумадије и Западне Србије,"37",865 187,,,,Славољуб Ћирковић 064 491 7583,"љубиша Филиповић, контакт у општини 865 200",Cultural Center,многофункциональные культурные центры,Общество культуры и туризма „Вукашин Вуле Евтич” Рибаре,多功能文化中心,利巴莱“武卡辛·武莱·耶夫蒂奇”文化旅游协会,,43.431383,21.523472,"43.431383, 21.523472","037",POINT(542367.6700198482 4808854.016542929)
"21850",Друштво за културу и туризам „Каонички извори` Каоник,"Society for Culture and Tourism ""Kaonicki izvor""",Поливалентни центри за културу,,село Каоник ,Крушевац,Крушевац,РАСИНСКИ ОКРУГ,Регион Шумадије и Западне Србије,"37",866 176 - услужни,,,,Миливоје Гајић,,Cultural Center,многофункциональные культурные центры,"Общество культуры и туризма „Каоникские источники"" Каоник",多功能文化中心,卡奥尼克”卡奥尼克之源“文化旅游协会,,43.558647,21.498579,"43.558647, 21.498579","037",POINT(540268.2754250858 4822975.369860616)
"21693",Задужбина Илије Милосављевића Коларца Београд,Ilija M. Kolarac Endowment,Поливалентни центри за културу,,Студентски трг 5,БЕОГРАД - Стари град,БЕОГРАД - Стари град,ГРАД БЕОГРАД,Београдски регион,"11","2636 319;  2635 073",,office@kolarac.rs,www.kolarac.rs,Јасна Димитријевић,Јасна Димитријевић,Cultural Center,многофункциональные культурные центры,Задужбина Ильи Милосавлевича Колараца Белград,多功能文化中心,贝尔格莱德伊利亚·米洛萨夫列维奇·科拉尔查遗赠基金会,,44.8191258,20.4541193,"44.8191258, 20.4541193","011",POINT(456841.09826283826 4963002.809928071)
"21841",Центар за културу Лепосавић,Cultural Center Leposavić,Поливалентни центри за културу,,Немањина 11,Лепосавић,Лепосавић,КОСОВСКО-МИТРОВАЧКИ ОКРУГ,Регион Косовo и Метохијa,"28",83 307,,,,,,Cultural Center,многофункциональные культурные центры,Культурный центр Лепосавич,多功能文化中心,莱珀萨维奇文化中心,,43.0999986,20.8034267,"43.0999986, 20.8034267","028",POINT(484003.6398894131 4771938.317370117)
"21907",Земунски мали уметнички центар,Zemun Small Artistic Centre,Поливалентни центри за културу,,Његошева 53,БЕОГРАД - Земун,БЕОГРАД - Земун,ГРАД БЕОГРАД,Београдски регион,"11",2617 998,,zmucbg@open.telekom.rs,www.zmuc.org,Весна Ташић,Горан Денић,Cultural Center,многофункциональные культурные центры,Земунский малый художественный центр,多功能文化中心,泽蒙小艺术中心,,44.8477578,20.4106134,"44.8477578, 20.4106134","011",POINT(453424.4637571163 4966207.391276537)
"23588",Излагачки простор Дома културе „Михајло Пупин“,"Exibition space Of Cultural Center ""Mihajlo Pupin""",Поливалентни центри за културу,Дом културе „Михајло Пупин”,Иве Лоле Рибара 47,Ковачица,Ковачица,ЈУЖНО-БАНАТСКИ ОКРУГ,Регион Војводине,"13",676 240,062 256 341,domkultureidvor@gmail.com,www.muzejpupina.rs,Светислав Закић,Мирјана Грујић,Cultural Center,многофункциональные культурные центры,Выставочная площадка Дома культуры  „Михайло Пупин“,多功能文化中心,”米哈伊尔·普平“文化之家展览空间,,45.1138736,20.6297926,"45.1138736, 20.6297926","013",POINT(470879.84813014086 4995667.095895034)
"21741",Јавна установа за образовање и културу „Вук Караџић” Бујановац,"Cultural Center ""Vuk Karadžić"" Bujanovac",Поливалентни центри за културу,,Карађорђев трг бб,Бујановац,Бујановац,ПЧИЊСКИ ОКРУГ,Регион Јужне и Источне Србије,"17",650 073,,kultura.bu@hotmail.com,,,/,Cultural Center,многофункциональные культурные центры,Госучреждение по вопросам образования и культуры „Вук Караджич” Буяновац,多功能文化中心,布雅诺瓦茨“武克·卡拉季奇”教育文化公共机构,,42.4603242,21.765397,"42.4603242, 21.765397","017",POINT(562929.6253810318 4701171.315366228)
"21872",Јавно предузеће за информисање „Шумадија” Аранђеловац,Public Information Company Sumadija Arandjelovac,Поливалентни центри за културу,,Кнеза Михајла 108,Аранђеловац,Аранђеловац,ШУМАДИЈСКИ ОКРУГ,Регион Шумадије и Западне Србије,"34",723 886,,rtvsumadija@open.telekom.rs,,Радован Бојић,Радован Бојић,Cultural Center,многофункциональные культурные центры,Госпредприятие по информированию „Шумадия” Аранджеловац,多功能文化中心,阿兰杰洛瓦茨“舒马迪亚”国有公司,,44.3082652,20.557366,"44.3082652, 20.557366","034",POINT(464696.46057446836 4906207.36100084)
"21847",Јавно предузеће спортско културни центар „Обреновац`,Cultural-Leisure Center Obrenovac,Поливалентни центри за културу,,Краља Александра I 63,БЕОГРАД - Обреновац,БЕОГРАД - Обреновац,ГРАД БЕОГРАД,Београдски регион,"11",8721 361,,info@obrenovac-info.co.rs,www.obrenovac-info.co.rs,Иван Јегоровић,Јасмина Обрадовић,Cultural Center,многофункциональные культурные центры,"Госпредприятие спортивно-культурный центр „Обреновац""",多功能文化中心,奥布雷诺瓦茨运动文化中心国有公司,,44.6580898,20.1978607,"44.6580898, 20.1978607","011",POINT(436404.2596368094 4945282.56110053)
"21905","ЈУ Културни центар ""Властимир Павловић Царевац"" Велико Градиште","Cultural center ""Vlastimir Pavlovic Carevac"" Velik",Поливалентни центри за културу,,Кнеза Лазара 28,Велико Градиште,Велико Градиште,БРАНИЧЕВСКИ ОКРУГ,Регион Јужне и Источне Србије,"12",661 179,"0605055732",kulturnicentarvg@gmail.com,www.kcvg.org.,Браниславка Величковић,Наташа Живановић,Cultural Center,многофункциональные культурные центры,"ГУ Культурный центр ""Властимир Павлович Царевац"" Велико-Градиште",多功能文化中心,大格拉迪什泰“弗拉斯蒂米尔·帕弗洛维奇·查莱瓦茨”文化中心公共机构,,44.7654866,21.515691,"44.7654866, 21.515691","012",POINT(540809.8010933741 4957028.803593669)
"21815",ЈУ Народни универзитет Врање,PI Public University Vranje,Поливалентни центри за културу,,Кнеза Милоша 26,Врање,Врање,ПЧИЊСКИ ОКРУГ,Регион Јужне и Источне Србије,"17","422 367, 412319",,univerzitetvr@ptt.rs,http://www.narodniuniverzitetvranje.edu.rs/,Небојша Величковић,Небојша Величковић,Cultural Center,многофункциональные культурные центры,ГУ Народный университет Вране,多功能文化中心,弗拉涅国立大学文化机构,,42.5550938,21.893728,"42.5550938, 21.893728","017",POINT(573369.9305164964 4711797.661144397)
"21916",Књижевна заједница Ваљева,Literary Community of Valjevo,Поливалентни центри за културу,,Чика Љубина 5,Ваљево,Ваљево,КОЛУБАРСКИ ОКРУГ,Регион Шумадије и Западне Србије,"14",220 214,,knjizevnazv@gmail.com,https://sr-rs.facebook.com/knjizevnazajednica.valjeva/,Светлана Јевтић-Петронић,Гордана Влајковић,Cultural Center,многофункциональные культурные центры,Литературное объединение Валево,多功能文化中心,瓦列沃文学社区,,44.269291,19.887097,"44.269291, 19.887097","014",POINT(411178.3971960986 4902385.286495958)
"21859",Културни центар „Reх” Београд,Cultural center “Reх” Belgrade,Поливалентни центри за културу,,Јеврејска 16,БЕОГРАД - Стари град,БЕОГРАД - Стари град,ГРАД БЕОГРАД,Београдски регион,"11","3284 534; 3284 299",,reх@b92.net,www.reх.b92.net,Маја Чечен,Тадеј Курепа,Cultural Center,многофункциональные культурные центры,Культурный центр „Рекс” Белград,多功能文化中心,贝尔格莱德“雷克斯”文化中心,,44.8266214,20.4551097,"44.8266214, 20.4551097","011",POINT(456924.98423216573 4963834.925044436)
"22464",Културни центар Ада,Cultural centre Ada,Поливалентни центри за културу,Библиотека „Сарваш Габор” Ада,Трг ослобођења 3а,Ада,Ада,СЕВЕРНО-БАНАТСКИ ОКРУГ,Регион Војводине,"38",851 615,,cs.erzsi@adacity.net,,Валерија Барна Коложи,Валерија Барна Коложи,Cultural Center,многофункциональные культурные центры,Культурный центр Ада,多功能文化中心,阿达文化中心,,45.796783,20.1322174,"45.796783, 20.1322174","038",POINT(432560.08597493096 5071835.221088883)
"21901",Културни центар Кикинда,Cultural Center  Kikinda,Поливалентни центри за културу,,Трг српских добровољаца 23,Кикинда,Кикинда,СЕВЕРНО-БАНАТСКИ ОКРУГ,Регион Војводине,"230",22 544,,kulturni.centar@kikinda.org.rs,www.kckikinda.rs,Срђан Тешин,Срђан Тешин,Cultural Center,многофункциональные культурные центры,Культурный центр Кикинда,多功能文化中心,基金达文化中心,,45.8311571,20.4640759,"45.8311571, 20.4640759","0230",POINT(458376.1322523615 5075427.801217316)
"21695",Културни центар „Добрица Милутиновић” Банатски Карловац,"Cultural Center ""Dobrica Milutinovic"" Banatski Karlovac",Поливалентни центри за културу,,Немањина 67,Алибунар,Алибунар,ЈУЖНО-БАНАТСКИ ОКРУГ,Регион Војводине,"13",651 228,,,,Вукаиловић Радиша,Гечановић љубинка,Cultural Center,многофункциональные культурные центры,Культурный центр „Добрица Милутинович” Банатски-Карловац,多功能文化中心,巴纳特卡尔洛瓦茨“多布里查·米卢提诺维奇”文化中心,,45.0793412,20.9667203,"45.0793412, 20.9667203","013",POINT(497380.67308302876 4991764.802002746)
"21771",Културни центар „Драинац”,"Cultural Center  ""Drainac"" Blace",Поливалентни центри за културу,,Краља Петра I 70,Блаце,Блаце,ТОПЛИЧКИ ОКРУГ,Регион Јужне и Источне Србије,"27",371 709,064 8099 444,kcracunovodstvo@gmail.com,http://kcdrainac.com/,Дејан Велимировиц,Снежана Урошевић,Cultural Center,многофункциональные культурные центры,Культурный центр „Драинац”,多功能文化中心,“德拉伊纳茨”文化中心,,43.2959854,21.2843628,"43.2959854, 21.2843628","027",POINT(523066.38425100123 4793723.5781277735)
"21856",Културни центар „Карловачка уметничка радионица” Сремски Карловци,"Cultural Center ""Karlovacka umetnicka radionica"" Sremski Karlovci",Поливалентни центри за културу,,Трг Бранка Радичевића 7/II,Сремски Карловци,Сремски Карловци,ЈУЖНО-БАЧКИ ОКРУГ,Регион Војводине,"21",881 075,,,,Жарко Димић,,Cultural Center,многофункциональные культурные центры,Культурный центр „Карловацкая художественная мастерская” Сремски-Карловци,多功能文化中心,斯雷姆斯基卡尔洛夫奇“卡尔洛瓦茨艺术工作室”文化中心,,45.2029239,19.9313932,"45.2029239, 19.9313932","021",POINT(416075.28458515555 5006048.46568227)
"21712",Културни центар „Лаза Костић” Сомбор,"Cultural Center ""Laza Kostić"" Sombor",Поливалентни центри за културу,,Венац Радомира Путника 2,Сомбор,Сомбор,ЗАПАДНО-БАЧКИ ОКРУГ,Регион Војводине,"25",468 328,"0637236907",kcsracunovodstvo@gmail.com,www.kcsombor.org.rs,Сaша Милић,Мајда Кубатов,Cultural Center,многофункциональные культурные центры,Культурный центр „Лаза Костич” Сомбор,多功能文化中心,松博尔“拉扎·科斯蒂奇”文化中心,,45.7724701,19.1109266,"45.7724701, 19.1109266","025",POINT(353126.94871893956 5070503.180533253)
"21868",Културни центар „Младост” Тутин,"Cultural Center ""Mladost"" Tutin",Поливалентни центри за културу,,Ферхадија I/2,Тутин,Тутин,РАШКИ ОКРУГ,Регион Шумадије и Западне Србије,"20","811 024; 812 024",,,,в.д. Амир Нумановић,,Cultural Center,многофункциональные культурные центры,Культурный центр „Молодость” Тутин,多功能文化中心,图廷“青年”文化中心,,42.990786,20.336375,"42.990786, 20.336375","020",POINT(445900.8514904559 4760005.236169264)
"21681",Културни центар „Радоје Домановић” Рача,"Cultural Center ""Radoje Domanović"" Rača",Поливалентни центри за културу,,Карађорђева 60,Рача,Рача,ШУМАДИЈСКИ ОКРУГ,Регион Шумадије и Западне Србије,"34",751 275,"069 8084 193; 069 8084 191",kcraca@gmail.com,https://sr-rs.facebook.com/Kulturni-centar-Radoje-Domanovi%C4%87-190779747619706/,Сашка Милојевић,Сашка Милојевић,Cultural Center,многофункциональные культурные центры,Культурный центр „Радое Доманович” Рача,多功能文化中心,拉查“拉多耶·多玛诺维奇”文化中心,,44.2268887,20.9782648,"44.2268887, 20.9782648","034",POINT(498264.05409202306 4897073.600939908)
"21669",Културни центар „Рибница” Краљево,"Cultural Center ""Ribnica"" Kraljevo",Поливалентни центри за културу,,Излетничка 2,Краљево,Краљево,РАШКИ ОКРУГ,Регион Шумадије и Западне Србије,"36",375 757,064 820 72 97,kcprogrami@gmail.com,http://www.kcribnica.rs/ ,в.д. Елизабета Тодоровић,Елизабета Тодоровић,Cultural Center,многофункциональные культурные центры,Культурный центр „Рибница” Кралево,多功能文化中心,克拉列沃“利布尼查”文化中心,,43.7110486,20.690217,"43.7110486, 20.690217","036",POINT(475043.1994283174 4839827.081581548)
"21766",Културни центар „Свети Сава” Суботица,"Cultural Center ""Sveti Sava"" Subotica",Поливалентни центри за културу,,Трг Републике 16,Суботица,Суботица,СЕВЕРНО-БАЧКИ ОКРУГ,Регион Војводине,"24",556 117,,skcsvetisava@eunet.rs,http://www.skcsvetisava.rs/,Милан Мародић-председник центра,Милан Мародић,Cultural Center,многофункциональные культурные центры,Культурный центр „Святой Савва” Суботица,多功能文化中心,苏博蒂察“圣萨瓦”文化中心,,46.1013719,19.6621738,"46.1013719, 19.6621738","024",POINT(396598.70993878285 5106180.640598134)
"21699",Културни центар „Светозар Марковић” Јагодина,Cultural Centre Jagodina,Поливалентни центри за културу,,Кнегиње Милице 25,Јагодина,Јагодина,ПОМОРАВСКИ ОКРУГ,Регион Шумадије и Западне Србије,"35","221 921; 243 863",064 8197 837,kultcentar@gmail.com,kulturnicentar.autentik.net,Небојша Петровић,Зорица Стојиновић,Cultural Center,многофункциональные культурные центры,Культурный центр „Светозар Маркович” Ягодина,多功能文化中心,雅戈蒂那“斯维托扎尔·马尔科维奇“文化中心,,43.9776727,21.2600822,"43.9776727, 21.2600822","035",POINT(520859.6797502235 4869425.876404308)
"21866",Културни центар „Хаџи Рувим” Лајковац,Cultural centre Lajkovac,Поливалентни центри за културу,,Војводе Мишића 2,Лајковац,Лајковац,КОЛУБАРСКИ ОКРУГ,Регион Шумадије и Западне Србије,"14",3431 176,,office@kclajkovac.rs,www.kclajkovac.rs,mr Сузана Јанковић,mr Сузана Јанковић,Cultural Center,многофункциональные культурные центры,Культурный центр „Хаджи Рувим” Лайковац,多功能文化中心,拉伊科瓦茨“哈吉·鲁维姆”文化中心,,44.3699867,20.1647553,"44.3699867, 20.1647553","014",POINT(433452.482446752 4913306.991947798)
"21720",Културни центар Бачка Паланка,Cultural Center  Backa Palanka,Поливалентни центри за културу,,Југословенске армије 19,Бачка Паланка,Бачка Паланка,ЈУЖНО-БАЧКИ ОКРУГ,Регион Војводине,"21",6041 644,"064/88-22-160,069/300-54-13",kulturnicentarbp@gmail.com,https://sr-rs.facebook.com/Kulturni-Centar-Backa-Palanka-125413507494460/,Марко Кнежић,Душка Танкосић,Cultural Center,многофункциональные культурные центры,Культурный центр Бачка Паланка,多功能文化中心,巴池帕兰卡文化中心,,45.2490163,19.3804139,"45.2490163, 19.3804139","021",POINT(372906.0900448611 5011889.406919734)
"21705",Културни центар Београда,Cultural Center of Belgrade,Поливалентни центри за културу,,Кнез Михаилова 6/1,БЕОГРАД - Стари град,БЕОГРАД - Стари град,ГРАД БЕОГРАД,Београдски регион,"11",2621 469,"0628005812",vesna.danilovic@kcb.org.rs,www.kcb.org.rs,в.д. Миа Давид Зарић,Весна Даниловић,Cultural Center,многофункциональные культурные центры,Культурный центр Белграда,多功能文化中心,贝尔格莱德文化中心,,44.8154466,20.4578549,"44.8154466, 20.4578549","011",POINT(457133.7197647171 4962592.133719151)
"21721",Културни центар Беочин,Cultural Center Beočin,Поливалентни центри за културу,,Трг Цара Лазара 1,Беочин,Беочин,ЈУЖНО-БАЧКИ ОКРУГ,Регион Војводине,"21","870 230; 870 231",,kcentar1@mts.rs,kcobeocin.rs,Софија Мартиновић,Татјана Станојевић,Cultural Center,многофункциональные культурные центры,Культурный центр Беочин,多功能文化中心,贝尔钦文化中心,,45.2079809,19.7190428,"45.2079809, 19.7190428","021",POINT(399406.9405870512 5006852.936411205)
"21773",Културни центар Брус,Cultural Center Brus,Поливалентни центри за културу,,Братиславе Петровић 15,Брус,Брус,РАСИНСКИ ОКРУГ,Регион Шумадије и Западне Србије,"37",825 254,063 883 6397,centarzakulturu2013@gmail.com,https://sr-rs.facebook.com/centarzakulturu.brus/,Смиљана Алексић,Смиљана Алексић,Cultural Center,многофункциональные культурные центры,Культурный центр Брус,多功能文化中心,布鲁斯文化中心,,43.3833333,21.0303966,"43.3833333, 21.0303966","037",POINT(502462.1192082188 4803385.187020475)
"21666",Културни центар Власотинце,Cultural Center Vlasotince,Поливалентни центри за културу,,АВНОЈ-а 1,Власотинце,Власотинце,ЈАБЛАНИЧКИ ОКРУГ,Регион Јужне и Источне Србије,"16","875 314; 877 466",064 8806880,kcentarvl@mts.rs,http://kcvlasotince.rs/,Бобан Димитријевић,"Бобан Димиријевић, Братислав Валчић",Cultural Center,многофункциональные культурные центры,Культурный центр Власотинце,多功能文化中心,弗拉索廷策文化中心,,42.9656805,22.1258157,"42.9656805, 22.1258157","016",POINT(591814.8671383637 4757618.523893116)
"21732",Културни центар Врбас,Cultural Center Vrbas,Поливалентни центри за културу,,Маршала Тита 87,Врбас,Врбас,ЈУЖНО-БАЧКИ ОКРУГ,Регион Војводине,"21","704726",,dkvrbas@eunet.rs,www.kcvrbas.org,Радомир Пејовић,Радомир Пејовић,Cultural Center,многофункциональные культурные центры,Культурный центр Врбас,多功能文化中心,弗尔巴茨文化中心,,45.5734098,19.642335,"45.5734098, 19.642335","021",POINT(394068.08621886186 5047548.559159183)
"21719",Културни центар Врњачка Бања,Cultural Center Vrnjačka Banja,Поливалентни центри за културу,,Врњачка 20,Врњачка Бања,Врњачка Бања,РАШКИ ОКРУГ,Регион Шумадије и Западне Србије,"36","611 153; 611 152 (директор)",069 8854 288,kulturnicentar.vb@gmail.com,http://www.vrnjacka-banja.co.rs/kulturni-centar-vrnjacke-banje/,Саша Миленковић,"Јелена Боровић-Димић, Саша Равилић",Cultural Center,многофункциональные культурные центры,Культурный центр Врнячка-Баня,多功能文化中心,弗拉涅巴尼亚文化中心,,43.618435,20.898122,"43.618435, 20.898122","036",POINT(491779.8580982137 4829499.718737202)
"21770",Културни центар Вршац,Cultural Center Vrsac,Поливалентни центри за културу,,Стеријина 62,Вршац,Вршац,ЈУЖНО-БАНАТСКИ ОКРУГ,Регион Војводине,"13","830 900; 834 630","0606050623","office@kulcentar.com; danielastojanov@yahoo.com",www.kulcentar.com,Davor Stojković,Živojin Petrović,Cultural Center,многофункциональные культурные центры,Культурный центр Вршац,多功能文化中心,弗尔沙茨文化中心,,45.1163782,21.2967034,"45.1163782, 21.2967034","013",POINT(523337.3784090869 4995921.489745574)
"21726",Културни центар Горњи Милановац,Cultural Center Gornji Milanovac,Поливалентни центри за културу,,Трг кнеза Михаила 1,Горњи Милановац,Горњи Милановац,МОРАВИЧКИ ОКРУГ,Регион Шумадије и Западне Србије,"32","711 118; 711 119; 720 427",,office@kcgm.org.rs,www.kcgm.org.rs,Драган Арсић,Драган Арсић,Cultural Center,многофункциональные культурные центры,Культурный центр Горни-Милановац,多功能文化中心,上米拉诺瓦茨文化中心,,44.0229241,20.4560927,"44.0229241, 20.4560927","032",POINT(456409.48610212374 4874562.762991182)
"21686",Културни центар Зрењанин,Cultural Center Zrenjanin,Поливалентни центри за културу,,Народне омладине 1,Зрењанин,Зрењанин,СРЕДЊЕ-БАНАТСКИ ОКРУГ,Регион Војводине,"23",566 712,,kczr@kczr.org,www.kczr.org,Горан Маринковић,Владимир Ðурић,Cultural Center,многофункциональные культурные центры,Культурный центр Зренянин,多功能文化中心,兹雷尼亚宁文化中心,,45.377208,20.3916587,"45.377208, 20.3916587","023",POINT(452369.05162548757 5025034.7947724685)
"21707",Културни центар Инђија,Cultural centre of Indjija,Поливалентни центри за културу,,Војводе Степе 40а,Инђија,Инђија,СРЕМСКИ ОКРУГ,Регион Војводине,"22","2150 148; 515 005; 510 915",,kci@indjija.net,www.kcindjija.com,Ружица Јовановић,Јелена Пешут,Cultural Center,многофункциональные культурные центры,Культурный центр Инджия,多功能文化中心,因吉亚文化中心,,45.0510419,20.0847052,"45.0510419, 20.0847052","022",POINT(427924.847670536 4989027.992917408)
"21884",Културни центар Колут,Cultural Center  Kolut,Поливалентни центри за културу,,Стојана Матића 43,Сомбор,Сомбор,ЗАПАДНО-БАЧКИ ОКРУГ,Регион Војводине,"25",804 226,,akolutt@gmail.com,,"Мирослав Алексић; 064/170 56 94",,Cultural Center,многофункциональные культурные центры,Культурный центр Колут,多功能文化中心,科鲁特文化中心,,45.886687,18.939349,"45.886687, 18.939349","025",POINT(340114.6446282356 5083522.462586363)
"21840",Културни центар Косовска Митровица,Cultural Center Kosovska Mitrovica,Поливалентни центри за културу,,Карађорђева 19,Косовска Митровица,Косовска Митровица,КОСОВСКО-МИТРОВАЧКИ ОКРУГ,Регион Косовo и Метохијa,"28",20 444,,,http://kckm.org/,,,Cultural Center,многофункциональные культурные центры,Культурный центр Косовска-Митровица,多功能文化中心,科索沃米特洛维察文化中心,,42.891249,20.864108,"42.891249, 20.864108","028",POINT(488904.1520227968 4748747.253372166)
"21810",Културни центар Крушевац,Cultural Center Kruševac,Поливалентни центри за културу,,Топличина 2,Крушевац,Крушевац,РАСИНСКИ ОКРУГ,Регион Шумадије и Западне Србије,"37",421 877,,kck@kck.org.rs,www.kck.org.rs,ВД љубодраг Обрадовић,ВД љубодраг Обрадовић,Cultural Center,многофункциональные культурные центры,Культурный центр Крушевац,多功能文化中心,克鲁舍瓦茨文化中心,,43.5789258,21.3250637,"43.5789258, 21.3250637","037",POINT(526245.3068697486 4825158.109687526)
"21723",Културни центар Кула,Cultural Center Kula,Поливалентни центри за културу,,Јосипа Крамера 3,Кула,Кула,ЗАПАДНО-БАЧКИ ОКРУГ,Регион Војводине,"25",722 477,/,kulturnicentarkula@yahoo.com,https://sr-rs.facebook.com/kulturnicentarkula,Каменко Бертић,Светлана Милетић,Cultural Center,многофункциональные культурные центры,Культурный центр Кула,多功能文化中心,库拉文化中心,,45.6083622,19.5291138,"45.6083622, 19.5291138","025",POINT(385305.2568085877 5051587.464046863)
"21743",Културни центар Мионица,"Cultural-Educational Center ""Tika Marić"" Mionica",Поливалентни центри за културу,,Др Јове Алексића 12,Мионица,Мионица,КОЛУБАРСКИ ОКРУГ,Регион Шумадије и Западне Србије,"14",62 773,/,kcmionica@gmail.com,https://sr-rs.facebook.com/kulturnicentar.mionica/,Аксентије Атић,Душанка Митровић,Cultural Center,многофункциональные культурные центры,Культурный центр Мионица,多功能文化中心,米奥尼查文化中心,,44.252739,20.0791626,"44.252739, 20.0791626","014",POINT(426486.7090900652 4900356.879034078)
"25218",Културни центар Нови Пазар,Cultural center of Novi Pazar,Поливалентни центри за културу,Kulturni centar Novi Pazar,Стевана Немање 2,Нови Пазар,Нови Пазар,РАШКИ ОКРУГ,Регион Шумадије и Западне Србије,"20",020/313069,,galerija.mmc.np@gmail.com,http://www.kcnovipazar.com/,Хусеин Мемић,Амра Хоџић Јејна,Cultural Center,многофункциональные культурные центры,Культурный центр Нови-Пазар,多功能文化中心,新帕扎尔文化中心,,43.1410512,20.516143,"43.1410512, 20.516143","020",POINT(460651.9149595598 4776592.096696962)
"21700",Културни центар Новог Сада,Cultural Center Novi Sad,Поливалентни центри за културу,,Католичка порта 5,Нови Сад,Нови Сад,ЈУЖНО-БАЧКИ ОКРУГ,Регион Војводине,"21",528 972,,info@kcns.org.rs,www.kcns.org.rs,Бојан Панаотовић,Сибина Рукавина,Cultural Center,многофункциональные культурные центры,Культурный центр Нови-Сада,多功能文化中心,诺维萨德文化中心,,45.2562965,19.8432509,"45.2562965, 19.8432509","021",POINT(409237.89060643385 5012073.122582275)
"21923",Културни центар општине Рековац,Cultural Center of Rekovac Municipality,Поливалентни центри за културу,,Краља Петра Првог 60,Рековац,Рековац,ПОМОРАВСКИ ОКРУГ,Регион Шумадије и Западне Србије,"35",8411-817,,,,Катарина Савић,Мирослав Симић,Cultural Center,многофункциональные культурные центры,Культурный центр муниципалитета Рековац,多功能文化中心,雷科瓦茨城区文化中心,,43.863734,21.092621,"43.863734, 21.092621","035",POINT(507442.78078060696 4856742.426116553)
"21706",Културни центар Панчева,Cultural Centre of Pancevo,Поливалентни центри за културу,,Војводе Живојина Мишића 4,Панчево,Панчево,ЈУЖНО-БАНАТСКИ ОКРУГ,Регион Војводине,"13",440 940,,kcp@kcp.rs,www.kulturnicentarpanceva.rs,Немања Богданов,Моника Хусар Токин,Cultural Center,многофункциональные культурные центры,Культурный центр Панчево,多功能文化中心,潘切沃文化中心,,44.8702536,20.6400189,"44.8702536, 20.6400189","013",POINT(471564.0223287469 4968600.406941795)
"21807",Културни центар Параћин,Cultural Center Paracin,Поливалентни центри за културу,,Бранка Крсмановића 45,Параћин,Параћин,ПОМОРАВСКИ ОКРУГ,Регион Шумадије и Западне Србије,"35",570 514,,kcp@beotel.net,www.kcp.org.rs,Зорица Ђорђевић,Зорица Ђорђевић,Cultural Center,многофункциональные культурные центры,Культурный центр Парачин,多功能文化中心,帕拉钦文化中心,,43.8623754,21.4058626,"43.8623754, 21.4058626","035",POINT(532614.8060787707 4856667.409271203)
"21765",Културни центар Пећинци,Cultural Center Pećinci,Поливалентни центри за културу,,Слободана Бајића Паје 1,Пећинци,Пећинци,СРЕМСКИ ОКРУГ,Регион Војводине,"22","436 237, 436 776",,centarpecinci@open.telekom.rs,https://sr-rs.facebook.com/people/Kulturni-Centar-Pecinci/100010507741931,Дејана Стаменковић,Олгица Богдановић,Cultural Center,многофункциональные культурные центры,Культурный центр Печинци,多功能文化中心,佩钦奇文化中心,,44.9087207,19.9647305,"44.9087207, 19.9647305","022",POINT(418275.45581884065 4973331.786038627)
"21749",Културни центар Пожега,Cultural Center Požega,Поливалентни центри за културу,,Књаза Милоша 8,Пожега,Пожега,ЗЛАТИБОРСКИ ОКРУГ,Регион Шумадије и Западне Србије,"31",812 421,069 740 290,kcpozega@gmail.com,www.kcpozega.rs,Слађана Петровић Варагић,Слађана Петровић Варагић,Cultural Center,многофункциональные культурные центры,Культурный центр Пожега,多功能文化中心,波热加文化中心,,43.8458925,20.0349857,"43.8458925, 20.0349857","031",POINT(422430.70430060104 4855209.225146063)
"21789",Културни центар Рома Суботица,Romani Cultural center Subotica,Поливалентни центри за културу,,Босе Миличевића бб,Суботица,Суботица,СЕВЕРНО-БАЧКИ ОКРУГ,Регион Војводине,"24",553 267,,kulturnicentarroma@yahoo.com,https://plus.google.com/100266143425204568970,Алекса Димовић,"Аница Димовић; 064/161 78 24",Cultural Center,многофункциональные культурные центры,Культурный центр рома Суботица,多功能文化中心,苏博蒂察罗马文化中心,,46.1021244,19.6684115,"46.1021244, 19.6684115","024",POINT(397082.2222337752 5106256.155134264)
"25221",Културни центар Рума,Cultural center Ruma,Поливалентни центри за културу,Културни центар Рума,Вељка Дугошевића 102,Рума,Рума,СРЕМСКИ ОКРУГ,Регион Војводине,"22",471 212,069 715 773,kulturnicentarruma@gmail.com,www.kcruma.co.rs,ВД директор Тања Слепчевић,Недељко Патковић,Cultural Center,многофункциональные культурные центры,Культурный центр Рума,多功能文化中心,鲁马文化中心,,45.008952,19.8192848,"45.008952, 19.8192848","022",POINT(406956.06492413796 4984622.908858505)
"21908",Културни центар Топола,Cultural centar Topola,Поливалентни центри за културу,,Булевар Вожда Карађорђа бб,Топола,Топола,ШУМАДИЈСКИ ОКРУГ,Регион Шумадије и Западне Србије,"34","811618","00",kctopola@mts.rs,http://www.kctopola.org.rs/,Мирољуб Марковић,Бојана Ђорђевић,Cultural Center,многофункциональные культурные центры,Культурный центр Топола,多功能文化中心,托珀拉文化中心,,44.254595,20.6757908,"44.254595, 20.6757908","034",POINT(474118.22039731493 4900201.880253245)
"21881",Културни центар Чукарица,Cultural Center Cukarica,Поливалентни центри за културу,,Тургењевљева 5,БЕОГРАД - Чукарица,БЕОГРАД - Чукарица,ГРАД БЕОГРАД,Београдски регион,"11","3559 368; 355 2678- инфо",,"office@kccukarica.rs; ivana.zonjic@kccukarica.rs",www.kccukarica.rs,Милан Симеуновић,Ивана Зоњић,Cultural Center,многофункциональные культурные центры,Культурный центр Чукарица,多功能文化中心,丘卡利查文化中心,,44.7834331,20.4153442,"44.7834331, 20.4153442","011",POINT(453746.9163917847 4959059.259863948)
"21802",Културни центар Шабац,"Cultural Center ""Vera Blagojević"" Šabac",Поливалентни центри за културу,,Господар Јевремова 12,Шабац,Шабац,МАЧВАНСКИ ОКРУГ,Регион Шумадије и Западне Србије,"15","346 936; 346 929",,,www.kulturni-centar.rs,Рајко Теовановић,Силвија Нешковић,Cultural Center,многофункциональные культурные центры,Культурный центр Шабац,多功能文化中心,沙巴茨文化中心,,44.7577639,19.6903541,"44.7577639, 19.6903541","015",POINT(396345.77885847195 4956875.807990247)
"21920",Културно информативни центар „Лукијан Мушицки” Темерин,"Cultural-Information Center ""Lukijan Musicki"" Temerin",Поливалентни центри за културу,,Новосадска 324,Темерин,Темерин,ЈУЖНО-БАЧКИ ОКРУГ,Регион Војводине,"21",843-695,,kictemerin@gmail.com,http://www.kctemerin.org.rs/,Мариа Агоштон,Анико хорват,Cultural Center,многофункциональные культурные центры,Культурно-информационный центр „Лукиян Мушицки” Темерин,多功能文化中心,泰梅林“鲁基扬·姆西茨基”文化信息中心,,45.4071151,19.8861826,"45.4071151, 19.8861826","021",POINT(412838.11400660506 5028780.689527848)
"21865",Културно просветна заједница Србије - Установа културе од националног значаја,Cultural Educational Community of Serbia,Поливалентни центри за културу,,Нушићева 4/II,БЕОГРАД - Стари град,БЕОГРАД - Стари град,ГРАД БЕОГРАД,Београдски регион,"11","3242 952, 3233 096",,kultura.kpzsrbije@open.telekom.rs,,генерални секретар Живорад Ајдачић,Марина Милекић,Cultural Center,многофункциональные культурные центры,Культурно-просветительское объединение Сербии - Учреждение культуры национального значения,多功能文化中心,国家重要文化机构塞尔维亚文化教育协会,,44.813935,20.459646,"44.813935, 20.459646","011",POINT(457274.2221593251 4962423.276577662)
"21863",Културно-издавачки центар „Српска кућа” Пожаревац,Cultural and publishing center `Serbianhouse`,Поливалентни центри за културу,,хајдук Вељкова 23,Пожаревац,Пожаревац,БРАНИЧЕВСКИ ОКРУГ,Регион Јужне и Источне Србије,"12",211 066,,srpskakuca@sbb.rs,www.srpskakuca.org.rs,Братислав Голић,Братислав Голић,Cultural Center,многофункциональные культурные центры,Культурно-издательский центр „Сербский дом” Пожаревац,多功能文化中心,波扎莱瓦茨“塞尔维亚之家”文化出版中心,,44.6198927,21.188491,"44.6198927, 21.188491","012",POINT(514953.8700011787 4940743.985620777)
"21733",Културно-информативни центар „Младост” Футог,"Cultural-Information Center ""Mladost"" Futog",Поливалентни центри за културу,,Цара Лазара 42,Нови Сад,Нови Сад,ЈУЖНО-БАЧКИ ОКРУГ,Регион Војводине,"21","895 225; 895 598",,kicfutog@gmail.com,https://sr-rs.facebook.com/kicmladost.futog/,Александра Рајак,"Александра Добрин, Љиљана Мамула, Гордана Старачек",Cultural Center,многофункциональные культурные центры,Культурно-информационный центр „Молодость” Футог,多功能文化中心,弗托格“青年”文化信息中心,,45.2374507,19.7038827,"45.2374507, 19.7038827","021",POINT(398269.00514648383 5010145.784360817)
"21746",Културно-информативни центар Бела Паланка,"Cultural Center ""Jovan Mitić - Đorđe"" Bela Palanka",Поливалентни центри за културу,,Српских владара 52,Бела Паланка,Бела Паланка,ПИРОТСКИ ОКРУГ,Регион Јужне и Источне Србије,"18",855 162,,radio_belapalanka@yahoo.com,,Мирослав Милошевић,љиљана Пејчић,Cultural Center,многофункциональные культурные центры,Культурно-информационный центр Бела Паланка,多功能文化中心,贝拉帕兰卡文化信息中心,,43.2181452,22.3092839,"43.2181452, 22.3092839","018",POINT(606339.8567338543 4785871.995222943)
"21855",Културно-образовни центар „Вук Караџић” Пландиште,"Cultural-Educational Center ""Vuk Karadžić"" Plandište",Поливалентни центри за културу,,Војводе Путника 58,Пландиште,Пландиште,ЈУЖНО-БАНАТСКИ ОКРУГ,Регион Војводине,"13",862 318,,kultura.plandiste@hotmail.com,https://sr-rs.facebook.com/KOCPlandiste/,Михаило Банчевић,Бранко Бабић,Cultural Center,многофункциональные культурные центры,Культурно-образовательный центр „Вук Караджич” Пландиште,多功能文化中心,普兰迪什泰“武克·卡拉季奇”文化教育中心,,45.2290511,21.1212161,"45.2290511, 21.1212161","013",POINT(509515.5415972726 5008402.732465289)
"21772",Културно-образовни центар „Турзо Лајош” Сента,"Cultural-Educational Center ""Turzo Lajoš"" Senta",Поливалентни центри за културу,,Поштанска 18,Сента,Сента,СЕВЕРНО-БАНАТСКИ ОКРУГ,Регион Војводине,"33",811 334,064 8473040,info@tlkk.org,www.tlkk.org,Рихард Хуђик,Рихард Хуђик,Cultural Center,многофункциональные культурные центры,Культурно-образовательный центр „Турзо Лайош” Сента,多功能文化中心,森塔“图兹洛·拉约什”文化教育中心,,45.9261201,20.0769465,"45.9261201, 20.0769465","033",POINT(428430.85955378826 5086253.182912882)
"21742",Културно-образовни центар Богатић,Cultural-Educational Center Bogatić,Поливалентни центри за културу,,Мике Витомировића 6,Богатић,Богатић,МАЧВАНСКИ ОКРУГ,Регион Шумадије и Западне Србије,"15",786 148,/,/,https://kocbogatic.rs/,Драгица Тешић,Драгица Тешић,Cultural Center,многофункциональные культурные центры,Культурно-образовательный центр Богатич,多功能文化中心,波加蒂奇文化教育中心,,44.833925,19.4794437,"44.833925, 19.4794437","015",POINT(379811.10228538583 4965626.416534372)
"21751",Културно-образовни центар Бољевац,Cultural-Educational Center Boljevac,Поливалентни центри за културу,,Кнеза Милоша 4,Бољевац,Бољевац,ЗАЈЕЧАРСКИ ОКРУГ,Регион Јужне и Источне Србије,"30",463 737,,kultura@beotel.rs,http://www.kocboljevac.org.rs/,Емина Бранковић,Емина Бранковић,Cultural Center,многофункциональные культурные центры,Культурно-образовательный центр Болевац,多功能文化中心,波列瓦茨文化教育中心,,43.8298842,21.9563162,"43.8298842, 21.9563162","030",POINT(576890.6826265979 4853423.137291466)
"21786",Културно-образовни центар Чока,Cultural-Educational Center Čoka,Поливалентни центри за културу,,Маршала Тита 2,Чока,Чока,СЕВЕРНО-БАНАТСКИ ОКРУГ,Регион Војводине,"230","71-046; 72-442",,koccoka@open.telekom.rs,"www.koccoka.rs, www.coka.org.rs",Кормањош Ласло,Ласло Сабо,Cultural Center,многофункциональные культурные центры,Культурно-образовательный центр Чока,多功能文化中心,朝卡文化教育中心,,45.9378385,20.1384088,"45.9378385, 20.1384088","0230",POINT(433210.40854992357 5087501.832031286)
"21737",Културно-образовни центар Шид,Cultural-Educational Center Šid,Поливалентни центри за културу,,Карађорђева 42,Шид,Шид,СРЕМСКИ ОКРУГ,Регион Војводине,"22",712 527,,kocsid@gmail.com,www.kocsid.org.rs,Бранислав Николић,Биљана Жеравић,Cultural Center,многофункциональные культурные центры,Культурно-образовательный центр Шид,多功能文化中心,西得文化教育中心,,45.1255838,19.2212063,"45.1255838, 19.2212063","022",POINT(360110.50746512116 4998440.408692263)
"21888",Културно-пословни центар Нова Пазова,Cultural-Educational Center Nova Pazova,Поливалентни центри за културу,,Цара Душана 1,Стара Пазова,Стара Пазова,СРЕМСКИ ОКРУГ,Регион Војводине,"22","329 101, 322-898",,kpcnpazova@gmail.com,,Керкез Владимир,"Керкез Владимир, Калинић Миланка",Cultural Center,многофункциональные культурные центры,Културно-деловой центр Нова-Пазова,多功能文化中心,新帕佐瓦文化商务中心,,44.9445271,20.2164011,"44.9445271, 20.2164011","022",POINT(438180.84881455306 4977086.730102098)
"21903",Културно-просветна заједница Александровац,Cultural-Educational community Aleksandrovac,Поливалентни центри за културу,,29. Новембар  бб,Александровац,Александровац,РАСИНСКИ ОКРУГ,Регион Шумадије и Западне Србије,"37","751 139; 064 3624 444",,,https://sr-rs.facebook.com/kpzzupa/,Миломир Беочанин- секретар,,Cultural Center,многофункциональные культурные центры,Культурно-образовательное объединение Александровац,多功能文化中心,阿莱克桑德洛瓦茨文化教育协会,,43.4584389,21.0483666,"43.4584389, 21.0483666","037",POINT(503912.84633400466 4811726.839487342)
"21764",Културно-просветна заједница Гаково,Cultural-Educational community Gakovo,Поливалентни центри за културу,,Краља Петра I 68,Сомбор,Сомбор,ЗАПАДНО-БАЧКИ ОКРУГ,Регион Војводине,"25",866 732,,so.oslazakostic@neobee.net,,Бранислав Говедар,Јованка Ступар 064 219 69 43,Cultural Center,многофункциональные культурные центры,Культурно-образовательное объединение Гаково,多功能文化中心,加科沃文化教育协会,,45.7712154,19.1160088,"45.7712154, 19.1160088","025",POINT(353518.79392980086 5070354.456131462)
"21845",Културно-просветна заједница Гњилане,Cultural-Educational community Gnjilane,Поливалентни центри за културу,,Краља Петра I Карађорђевића ,Гњилане,Гњилане,КОСОВСКО-ПОМОРАВСКИ ОКРУГ,Регион Косовo и Метохијa,"280",28 226,,,,,,Cultural Center,многофункциональные культурные центры,Культурно-образовательное объединение Гнилане,多功能文化中心,格尼拉奈文化教育协会,,42.462037,21.469109,"42.462037, 21.469109","0280",POINT(538568.2193771178 4701184.328701623)
"21790",Културно-просветна заједница Житиште,Cultural-Educational community Zitiste,Поливалентни центри за културу,,Цара Душана 15,Житиште,Житиште,СРЕДЊЕ-БАНАТСКИ ОКРУГ,Регион Војводине,"23",821 050,,zitiste.kpz@gmail.com,www.kulturazitiste.org,Едит Сарка,Едит Сарка,Cultural Center,многофункциональные культурные центры,Культурно-образовательное объединение Житиште,多功能文化中心,日蒂什泰文化教育协会,,45.4838831,20.550034,"45.4838831, 20.550034","023",POINT(464835.57342295814 5036804.425611472)
"21754",Културно-просветна заједница Јагодина,Cultural-Educational community Jagodina,Поливалентни центри за културу,,Краља Петра I 6/2,Јагодина,Јагодина,ПОМОРАВСКИ ОКРУГ,Регион Шумадије и Западне Србије,"35",223 023,,,,Марија Вулић,,Cultural Center,многофункциональные культурные центры,Культурно-образовательное объединение Ягодина,多功能文化中心,雅戈蒂那文化教育协会,,43.9757648,21.2604385,"43.9757648, 21.2604385","035",POINT(520888.9253378251 4869214.061074674)
"21792",Културно-просветна заједница Кикинда,Cultural-Educational community Kikinda,Поливалентни центри за културу,,Трг српских добровољаца 21,Кикинда,Кикинда,СЕВЕРНО-БАНАТСКИ ОКРУГ,Регион Војводине,"230",,,,,Недељко Радловић,,Cultural Center,многофункциональные культурные центры,Культурно-образовательное объединение Кикинда,多功能文化中心,基金达文化教育协会,,45.8294736,20.4630957,"45.8294736, 20.4630957","0230",POINT(458298.74542827875 5075241.2698819535)
"21794",Културно-просветна заједница Ковачица,Cultural-Educational community Kovacica,Поливалентни центри за културу,,Маршала Тита 50,Ковачица,Ковачица,ЈУЖНО-БАНАТСКИ ОКРУГ,Регион Војводине,"13","661 122 опстина, трази се КПЗ",,jarmila@kovacica.org,www.kovacica.org,Мариус Рамјанц,Јармила Ћендић,Cultural Center,многофункциональные культурные центры,Культурно-образовательное объединение Ковачица,多功能文化中心,科瓦奇查文化教育协会,,45.1123173,20.6183287,"45.1123173, 20.6183287","013",POINT(469977.29302142287 4995498.399334419)
"21825",Културно-просветна заједница Косова и Метохије Приштина,Cultural-Educational community of Kosovo and Metohija,Поливалентни центри за културу,,Булевар Рамиза Садику бб,Приштина,Приштина,КОСОВСКИ ОКРУГ,Регион Косовo и Метохијa,"38","23 248; 24 363",,,,,,Cultural Center,многофункциональные культурные центры,Культурно-образовательное объединение Косово и Метохии Приштина,多功能文化中心,普里什蒂那科索沃与梅托希亚文化教育协会,,42.667125,21.165423,"42.667125, 21.165423","038",POINT(513555.91462315235 4723863.934953994)
"21804",Културно-просветна заједница Крагујевац,Cultural-Educational community Kragujevac,Поливалентни центри за културу,,Трг Слободе 1,Крагујевац,Крагујевац,ШУМАДИЈСКИ ОКРУГ,Регион Шумадије и Западне Србије,"34",333 518,,,,Ранко Милосављевић,,Cultural Center,многофункциональные культурные центры,Культурно-образовательное объединение Крагуевац,多功能文化中心,克拉古耶瓦茨文化教育协会,,44.0132444,20.91746,"44.0132444, 20.91746","034",POINT(493383.9010911615 4873347.180040188)
"21730",Културно-просветна заједница Краљево,Cultural-Educational community Kraljevo,Поливалентни центри за културу,,Омладинска 2/5,Краљево,Краљево,РАШКИ ОКРУГ,Регион Шумадије и Западне Србије,"36",323 243,,anticsnezana@yahoo.com,,Антић Снежана секретар,Антић Снежана секретар,Cultural Center,многофункциональные культурные центры,Культурно-образовательное объединение Кралево,多功能文化中心,克拉列沃文化教育协会,,43.7241585,20.6841053,"43.7241585, 20.6841053","036",POINT(474556.3751586955 4841284.955839969)
"21725",Културно-просветна заједница Крушевац,Cultural-Educational community Krusevac,Поливалентни центри за културу,,Мајке Југовића 12,Крушевац,Крушевац,РАСИНСКИ ОКРУГ,Регион Шумадије и Западне Србије,"37","425 140; 422 140",,kpzks@ptt.rs,https://sr-rs.facebook.com/kpzkrusevac/,Јасмина Милић,Јасмина Милић,Cultural Center,многофункциональные культурные центры,Культурно-образовательное объединение Крушевац,多功能文化中心,克鲁舍瓦茨文化教育协会,,43.5819586,21.3239128,"43.5819586, 21.3239128","037",POINT(526151.071647068 4825494.5687738685)
"21798",Културно-просветна заједница Кула,Cultural-Educational community Kula,Поливалентни центри за културу,,Лењинова 11/4,Кула,Кула,ЗАПАДНО-БАЧКИ ОКРУГ,Регион Војводине,"25",722 359,,kpz_kula@open.telekom.rs,,,секретар Сава Прерадовић,Cultural Center,многофункциональные культурные центры,Культурно-образовательное объединение Кула,多功能文化中心,库拉文化教育协会,,45.6102826,19.5272825,"45.6102826, 19.5272825","025",POINT(385166.37848951056 5051803.439363455)
"21880",Културно-просветна заједница Панчево,Cultural-Educational community Pancevo,Поливалентни центри за културу,,Светога Саве 10,Панчево,Панчево,ЈУЖНО-БАНАТСКИ ОКРУГ,Регион Војводине,"13",311 310,,kpzpancevo@yahoo.com,https://www.facebook.com/kulturnoprosvetna.zajednicapancevo,Петар Павлов,Стојан Бошков,Cultural Center,многофункциональные культурные центры,Культурно-образовательное объединение Панчево,多功能文化中心,潘切沃文化教育协会,,44.8732997,20.6444844,"44.8732997, 20.6444844","013",POINT(471918.24681123707 4968937.228568185)
"21808",Културно-просветна заједница Рековац,Cultural-Educational community Rekovac,Поливалентни центри за културу,,Краља Петра I 56,Рековац,Рековац,ПОМОРАВСКИ ОКРУГ,Регион Шумадије и Западне Србије,"35",711 817,,,,Милан Рашић,,Cultural Center,многофункциональные культурные центры,Культурно-образовательное объединение Рековац,多功能文化中心,莱科瓦茨文化教育协会,,43.863734,21.092621,"43.863734, 21.092621","035",POINT(507442.78078060696 4856742.426116553)
"21791",Културно-просветна заједница Сечањ,Cultural-Educational community Secanj,Поливалентни центри за културу,,Вожда Карађорђа 59,Сечањ,Сечањ,СРЕДЊЕ-БАНАТСКИ ОКРУГ,Регион Војводине,"23",841 620,,kpzsecanj@beotel.net,,,"Драгана Слијепцевиц, Милица Јелициц",Cultural Center,многофункциональные культурные центры,Культурно-образовательное объединение Сечань,多功能文化中心,塞查尼文化教育协会,,45.3666119,20.7701951,"45.3666119, 20.7701951","023",POINT(482003.7345721149 5023703.330628713)
"21871",Културно-просветна заједница Сјеница,Cultural-Educational community Sjenica,Поливалентни центри за културу,,Саве Ковачевића бб,Сјеница,Сјеница,ЗЛАТИБОРСКИ ОКРУГ,Регион Шумадије и Западне Србије,"20",437 158,,flores@verat.net,,Ирфет хаџифејзовић,,Cultural Center,многофункциональные культурные центры,Культурно-образовательное объединение Сеница,多功能文化中心,谢尼查文化教育协会,,43.2738521,20.0014775,"43.2738521, 20.0014775","020",POINT(418974.2048835571 4791710.341628345)
"21800",Културно-просветна заједница Сремска Митровица,Cultural-Educational community Sremska Mitrovica,Поливалентни центри за културу,,Вука Караџића 10,Сремска Митровица,Сремска Митровица,СРЕМСКИ ОКРУГ,Регион Војводине,"22",628 718,,,,Зорица Мишовић,Зорица Мишовић,Cultural Center,многофункциональные культурные центры,Культурно-образовательное объединение Сремска-Митровица,多功能文化中心,斯雷姆斯卡米特洛维察文化教育协会,,44.9669918,19.6068788,"44.9669918, 19.6068788","022",POINT(390137.68521162425 4980227.598145796)
"21788",Културно-просветна заједница Суботица,Cultural-Educational community Subotica,Поливалентни центри за културу,,Трг Лазара Нешића 1,Суботица,Суботица,СЕВЕРНО-БАЧКИ ОКРУГ,Регион Војводине,"24",21 586,,,,Ђуро Молнар,,Cultural Center,многофункциональные культурные центры,Культурно-образовательное объединение Суботица,多功能文化中心,苏博蒂察文化教育协会,,46.0982422,19.6684769,"46.0982422, 19.6684769","024",POINT(397080.0526805044 5105824.728139949)
"21777",Културно-просветна заједница Трстеник,Cultural-Educational community Trstenik,Поливалентни центри за културу,,Кнегиње Милице 16,Трстеник,Трстеник,РАСИНСКИ ОКРУГ,Регион Шумадије и Западне Србије,"37",711 204,,kpztrstenik@gmail.com,http://www.trstenik.rs/index.php/kultura,Маја Чајетинац,Маја Чајетинац,Cultural Center,многофункциональные культурные центры,Культурно-образовательное объединение Трстеник,多功能文化中心,特尔斯特尼克文化教育协会,,43.6198327,20.9971472,"43.6198327, 20.9971472","037",POINT(499769.8239365321 4829649.910220027)
"21801",Културно-просветна заједница Шабац,Cultural-Educational community Sabac,Поливалентни центри за културу,,Цара Душана 20,Шабац,Шабац,МАЧВАНСКИ ОКРУГ,Регион Шумадије и Западне Србије,"15",305 905,,,,секретар Драган Раденковић,Горан Томић,Cultural Center,многофункциональные культурные центры,Культурно-образовательное объединение Шабац,多功能文化中心,沙巴茨文化教育协会,,44.7579109,19.6938718,"44.7579109, 19.6938718","015",POINT(396624.4560235683 4956887.661513097)
"21676",Културно-просветни центар „Јован Шербановић”,"Cultural-Educational center ""Jovan Serbanovic""",Поливалентни центри за културу,,Краља Милана 25,Жагубица,Жагубица,БРАНИЧЕВСКИ ОКРУГ,Регион Јужне и Источне Србије,"12",643 835,,kpczagubica@gmail.com,www.kpc-artzagubica.org,Новица Обреновић,Новица Обреновић,Cultural Center,многофункциональные культурные центры,Культурно-просветительский центр „Йован Шербанович”,多功能文化中心,“约万·舍尔巴诺维奇”文化教育协会,,44.1982741,21.7853825,"44.1982741, 21.7853825","012",POINT(562757.3298806633 4894194.959252732)
"21885",Културно-просветни центар Петровац на Млави,Cultural-Educational center Petrovac na Mlavi,Поливалентни центри за културу,,Петра Добрњца 179,Петровац на Млави,Петровац на Млави,БРАНИЧЕВСКИ ОКРУГ,Регион Јужне и Источне Србије,"12",331 065,,kpcpetrovac@gmail.com,http://www.kpcpetrovac.com/,Миодраг Лукић,Перица Благојевић,Cultural Center,многофункциональные культурные центры,Культурно-просветительский центр Петровац-на-Млаве,多功能文化中心,姆拉瓦彼得罗瓦茨文化教育协会,,44.3764851,21.4188894,"44.3764851, 21.4188894","012",POINT(533370.9985530614 4913774.910187999)
"21783",Културно-туристички центар „Доситеј Обрадовић” Баточина,"Cultural Center ""Dositej Obradović"" Batočina",Поливалентни центри за културу,,Краља Петра I 69,Баточина,Баточина,ШУМАДИЈСКИ ОКРУГ,Регион Шумадије и Западне Србије,"34","842 145; 841 539",,kcbatocina@open.telekom.rs,www.ktcbatocina.rs,Јасмина Младеновић,"Мирјана Ђорђевић, Јасмина Младеновић",Cultural Center,многофункциональные культурные центры,Культурно-туристический центр „Досифей Обрадович” Баточина,多功能文化中心,巴托契纳“多西泰伊·奥布拉多维奇”文化教育协会,,44.1548629,21.0780108,"44.1548629, 21.0780108","034",POINT(506238.15542291885 4889076.314277241)
"21919",Културно-туристички центар „Ђура Јакшић” Српска Црња,"Cultural and Tourist Center ""Djura Jaksic"" Srpska Crnja",Поливалентни центри за културу,,Краља Александра 62,Нова Црња,Нова Црња,СРЕДЊЕ-БАНАТСКИ ОКРУГ,Регион Војводине,"23",,,,,,,Cultural Center,многофункциональные культурные центры,Культурно-туристический центр „Джура Якшич” Српска-Црня,多功能文化中心,塞尔维亚策尔尼亚“久拉·亚克西奇”文化教育协会,,45.7255861,20.6925757,"45.7255861, 20.6925757","023",POINT(476078.02491307 5063604.912769768)
"21680",Културно-туристички центар „Стефан Немања” Лапово,"Cultural Center ""Stefan Nemanja"" Lapovo",Поливалентни центри за културу,,његошева 33,Лапово,Лапово,ШУМАДИЈСКИ ОКРУГ,Регион Шумадије и Западне Србије,"34",853 933,,ktcsnlapovo@gmail.com,https://sr-rs.facebook.com/ktcstefannemanja.lapovo,Гордана Мркаљ,Гордана Мркаљ,Cultural Center,многофункциональные культурные центры,Культурно-туристический центр „Стефан Неманя” Лапово,多功能文化中心,拉珀沃“斯太凡·奈马尼亚”文化教育协会,,44.1853858,21.0441822,"44.1853858, 21.0441822","034",POINT(503531.220341269 4892464.517547019)
"23663",Кућа краља Петра,King Petar's House,Поливалентни центри за културу,Дечији културни центар „Мајдан” Београд,Васе Пелагића 40,БЕОГРАД - Савски венац,БЕОГРАД - Савски венац,ГРАД БЕОГРАД,Београдски регион,"11",2652 986,,kucakraljapetra@gmail.com,http://www.kucakraljapetra.rs/,,,Cultural Center,многофункциональные культурные центры,Дом короля Петра,多功能文化中心,彼得王宫,,44.7898567,20.4399348,"44.7898567, 20.4399348","011",POINT(455697.2336697187 4959759.123785095)
"21687",Лесковачки културни центар,Leskovac Cultural Centre,Поливалентни центри за културу,,Булевар ослобођења 101,Лесковац,Лесковац,ЈАБЛАНИЧКИ ОКРУГ,Регион Јужне и Источне Србије,"16","212991",064 876 33 88,lkc@lkc.org.rs,www.lkc.org.rs,Сања Цонић,Небојша Н. Коцић,Cultural Center,многофункциональные культурные центры,Лесковацкий культурный центр,多功能文化中心,莱斯科瓦茨文化中心,,42.9966613,21.9484949,"42.9966613, 21.9484949","016",POINT(577314.6947255336 4760880.475948041)
"23705",Мађарски културни центар Nepker,Hungarian Cultural Center Nepkor,Поливалентни центри за културу,,Трг Кошут Лајоша 4,Суботица,Суботица,СЕВЕРНО-БАЧКИ ОКРУГ,Регион Војводине,"24",557 033,,info@nepkor.rs,www.nepkorrest.com,,,Cultural Center,многофункциональные культурные центры,Венгерский культурный центр Непкер,多功能文化中心,内普克尔匈牙利文化中心,,46.1007801,19.6560321,"46.1007801, 19.6560321","024",POINT(396122.9063630612 5106122.893496111)
"21904",Мултимедијални центар,Multimedial Center,Поливалентни центри за културу,,Ферхадија 1,Тутин,Тутин,РАШКИ ОКРУГ,Регион Шумадије и Западне Србије,"20","811 024; 820 010",063 8881 224,mmcentartutin@gmail.com,http://mmc-tutin.blogspot.rs/,Рифат Рамовић,Рифат Рамовић,Cultural Center,многофункциональные культурные центры,Мультимедиа центр,多功能文化中心,多媒体中心,,42.9907876,20.3341859,"42.9907876, 20.3341859","020",POINT(445722.3954427481 4760006.825664544)
"21817",Народни универзитет „Божидар Аџија” Београд,"Public University ""Bozidar Adzija"" Belgrade",Поливалентни центри за културу,,Радослава Грујића 3,БЕОГРАД - Врачар,БЕОГРАД - Врачар,ГРАД БЕОГРАД,Београдски регион,"11",3443 446,,info@bozidaradzija.com,https://www.bozidarac.rs/,Зоран Милановић,Ивана Бојовић,Cultural Center,многофункциональные культурные центры,Народный университет „Божидар Аджия” Белград,多功能文化中心,贝尔格莱德“波日达尔·阿基亚”国立大学,,44.7921049,20.4715052,"44.7921049, 20.4715052","011",POINT(458196.16663041175 4959992.147562254)
"22791",Центар за културу,Cultural Center,Поливалентни центри за културу,Народни универзитет Трстеник (Центар за културу),/ /,Трстеник,Трстеник,РАСИНСКИ ОКРУГ,Регион Шумадије и Западне Србије,"37",/,/,/,http://www.narodnits.rs/,,/,Cultural Center,многофункциональные культурные центры,Культурный центр,多功能文化中心,文化中心,,43.618645,20.9747028,"43.618645, 20.9747028","037",POINT(497958.8738995759 4829518.310715094)
"21820",Народни универзитет „Браћа Стаменковић” Београд,"Public University ""Braca Stamenkovic"" Belgrade",Поливалентни центри за културу,,Митрополита Петра 8,БЕОГРАД - Палилула,БЕОГРАД - Палилула,ГРАД БЕОГРАД,Београдски регион,"11","2764 866; 2764 686",,,www.nubs.co.rs,Раде Богдановић,,Cultural Center,многофункциональные культурные центры,Народный университет „Братья Стаменкович” Белград,多功能文化中心,贝尔格莱德“布拉恰·斯塔门科维奇”国立大学,,44.8165635,20.4832497,"44.8165635, 20.4832497","011",POINT(459142.4227070026 4962703.125230402)
"21778",Нишки културни центар,Cultural Center Niš,Поливалентни центри за културу,,Станоја Бунушевца бб,Ниш,Ниш,НИШАВСКИ ОКРУГ,Регион Јужне и Источне Србије,"18","595 740; 595 744",,niskikulturnicentar@gmail.com,https://sr-rs.facebook.com/niskikulturnicentar/,Бојана Симовић,Дејан Дабић,Cultural Center,многофункциональные культурные центры,Нишский культурный центр,多功能文化中心,尼什文化中心,,43.3107954,21.8970394,"43.3107954, 21.8970394","018",POINT(572746.7851478476 4795719.686737947)
"23678",Новобеоградска културна мрежа,New Belgrade Cultural Network,Поливалентни центри за културу,,Јурија Гагарина 221,БЕОГРАД - Нови Београд,БЕОГРАД - Нови Београд,ГРАД БЕОГРАД,Београдски регион,"11",6151 675,,blokgallery@novibeograd.rs,,,,Cultural Center,многофункциональные культурные центры,Новибелградская культурная сеть,多功能文化中心,新贝尔格莱德文化网,,44.7974823,20.3754598,"44.7974823, 20.3754598","011",POINT(450603.57990441815 4960643.346544839)
"21673",Образовно културни центар Сечањ,Cultural-Educational Center Sečanj,Поливалентни центри за културу,,Вожда Карађорђа 94,Сечањ,Сечањ,СРЕДЊЕ-БАНАТСКИ ОКРУГ,Регион Војводине,"23","3841471","0698023445",okcsecanj@beotel.net,https://sr-rs.facebook.com/okcsecanj/,Браниславка Рудан,Браниславка Рудан,Cultural Center,многофункциональные культурные центры,Образовательно-культурный центр Сечань,多功能文化中心,塞查尼教育文化中心,,45.3666119,20.7701951,"45.3666119, 20.7701951","023",POINT(482003.7345721149 5023703.330628713)
"21683",Образовно-културна установа „Cnesa” Кањижа,"Institution for Education and Culture  ""Cnesa"" Kanjiza",Поливалентни центри за културу,,Главни трг 9,Кањижа,Кањижа,СЕВЕРНО-БАНАТСКИ ОКРУГ,Регион Војводине,"25","873043","063545296",theater@cnesa.rs,www.cnesa.rs,Карољ Шарњаи,Едит Ердељи Тот,Cultural Center,многофункциональные культурные центры,Образовательно-культурное учреждение „Цнеса” Канижа,多功能文化中心,卡尼扎“斯内沙”教育文化机构,,46.0658689,20.0568299,"46.0658689, 20.0568299","025",POINT(427054.983804057 5101798.403414616)
"21882",Омладински савез општине Врање,Youth Federation of Vranje municipality,Поливалентни центри за културу,,29. новембра 16,Врање,Врање,ПЧИЊСКИ ОКРУГ,Регион Јужне и Источне Србије,"17","421416",,omladinskisavezvr@open.telekom.rs,,Срђан Јовановић,Срђан Јовановић,Cultural Center,многофункциональные культурные центры,Союз молодежи муниципалитета Вране,多功能文化中心,弗拉涅城区奥林匹克协会,,42.5530927,21.895235,"42.5530927, 21.895235","017",POINT(573495.9956109837 4711576.763721637)
"22685",Омладински центар ЦК13,Youth Cultural Center CK13,Поливалентни центри за културу,,Војводе Бојовића 13,Нови Сад,Нови Сад,ЈУЖНО-БАЧКИ ОКРУГ,Регион Војводине,"21",4737 601,,office@ck13.org,https://ck13.org/,,Бојан Кривокапић,Cultural Center,многофункциональные культурные центры,Молодежный центр ЦК13,多功能文化中心,CK13青年中心,,45.2583553,19.8376956,"45.2583553, 19.8376956","021",POINT(408805.300998881 5012308.10543792)
"21722",Општински културни центар Апатин,Cultural center of Apatin,Поливалентни центри за културу,,Петефи Шандора 4,Апатин,Апатин,ЗАПАДНО-БАЧКИ ОКРУГ,Регион Војводине,"25",773 303,069 1444 204,kulturnicentarapatin@yahoo.com,www.kulturaapatin.com,Нино Кустурица,Јелена Филиповић,Cultural Center,многофункциональные культурные центры,Муниципальный культурный центр Апатин,多功能文化中心,城区文化中心,,45.6737242,18.9772296,"45.6737242, 18.9772296","025",POINT(342454.86644390813 5059786.90469541)
"21760",Организација за туризам и културу Сокобања,Organization for Tourism and Culture Sokobanja,Поливалентни центри за културу,,Трг Ослобођења 2,Сокобања,Сокобања,ЗАЈЕЧАРСКИ ОКРУГ,Регион Јужне и Источне Србије,"18",833 988,064 856 88 01,otks_sokobanja@beotel.rs,http://www.tosokobanja.rs/sr,Љубинко Миленковић,Братислав Мајкић,Cultural Center,многофункциональные культурные центры,Организация по вопросам туризма и культуры Сокобаня,多功能文化中心,索克巴尼亚旅游文化组织,,43.6442959,21.8689599,"43.6442959, 21.8689599","018",POINT(570083.0879578675 4832733.612857708)
"21685",Отворени универзитет Суботица доо,Open University Subotica,Поливалентни центри за културу,,Трг цара Јована Ненада 15,Суботица,Суботица,СЕВЕРНО-БАЧКИ ОКРУГ,Регион Војводине,"24",554 600,"+381637348784",board@openunsubotica.rs,www.openunsubotica.rs,Илија Татић,Ивона Ивељић,Cultural Center,многофункциональные культурные центры,Открытый университет Суботица,多功能文化中心,苏博蒂察开放大学,,46.101946,19.66498,"46.101946, 19.66498","024",POINT(396816.6723120657 5106240.78153891)
"22692","Предузеће за културу, образовање, издаваштво и маркетинг „Ђуро Салај” АД","Company for culture, education, publishing and marketing ""Djuro Salaj"" JSC",Поливалентни центри за културу,,Немањина 28,БЕОГРАД - Савски венац,БЕОГРАД - Савски венац,ГРАД БЕОГРАД,Београдски регион,"11",3621 787,063 423 567,akademija28@yahoo.com,www.akademija28.com,Иван Ковачевић,Миленко Исаиловић,Cultural Center,многофункциональные культурные центры,"Предприятие по вопросам культуры, образования, издательской деятельности и маркетинга „Джуро Салай” АО",多功能文化中心,“久罗·萨莱“文化教育出版市场公司,,44.8035259,20.461333,"44.8035259, 20.461333","011",POINT(457399.95191065816 4961266.110676276)
"21861",Раднички универзитет Инђија,University of Indjija,Поливалентни центри за културу,,Војводе Степе 11,Инђија,Инђија,СРЕМСКИ ОКРУГ,Регион Војводине,"22",556 651,,,,Милан Механџић,,Cultural Center,многофункциональные культурные центры,"Раднички (""рабочий"") университет Инджия",多功能文化中心,因吉亚工人大学,,45.0492632,20.0807707,"45.0492632, 20.0807707","022",POINT(427612.7805906419 4988833.910854095)
